stop_id,stop_code,stop_name,stop_lat,stop_lon
0,U01761,Adarsh Nagar / Bharola Village,28.715917,77.170867
1,DC4248,British High Comission,28.598533,77.191383
2,U02398,Azad Market,28.6647,77.2084
3,U02416,Kidwai Nagar,28.5757,77.2097
4,DC4271,Rashid Market,28.6502,77.278667
5,U03074,Nehru Nagar,28.56915,77.253883
6,U02904,Sunder Nagar,28.602217,77.2404
7,DC4225,Suraj Mal Vihar,28.661283,77.303517
8,U02563,National Archives,28.6147,77.2185
9,U02922,Darya Ganj,28.6460833333333,77.2404
10,U00314,Nangli Sakrawati,28.614667,77.0034
11,U01623,B-4 Keshav Puram,28.68755,77.1625
12,U99637,Bawana Village,28.801917,77.039067
13,U00086,Mitraon Village,28.608213,76.947336
14,U03518,Hargovind Enclave,28.645667,77.300467
15,U00193,NajafGarh Dhansa Stand,28.6115,76.977817
16,U03678,Super Bazar,28.61335,77.3162
17,U99639,Kapashera Crossing,28.528867,77.08675
18,U03409,Batla House,28.562317,77.2861
19,U00429,Karala Village,28.7315,77.037
20,U00786,Manglapuri / Palam Village,28.5893166666667,77.08635
21,U02926,Delhi Gate (JLN Marg),28.640024,77.238077
22,U00828,Udyog Nagar,28.6803,77.0893
23,U01798,Ashok Vihar Water Tank,28.687017,77.173667
24,DC4148,Centaur Hotel / New Custom House,28.553099,77.103543
25,DC3956,Bhagwan Mahavir Hospital,28.687467,77.118117
26,U03522,Badarpur Village,28.502067,77.300033
27,U03766,Mayur Vihar Phase 3 Crossing,28.6018,77.32735
28,DC4394,Ranhola Extension,28.657906,77.043018
29,NS0252,COD Ring Road,28.613,77.1367166666667
30,DC4294,Samrat Enclave,28.685237,77.140696
31,DC4540,P S Narela,28.853365,77.088567
32,DC4686,Jatt Khor Crossing,28.788083,76.962633
33,U02690,ISBT Nityanand Marg,28.668342,77.225091
34,DC4663,CRPF Camp,28.716733,77.25785
35,U03580,Nand Nagari Depot,28.69905,77.306183
36,DC0008,Karala Crossing,28.7316,77.0319
37,U01038,Subhash Nagar Crossing / Mukherji Park,28.64192,77.108859
38,DC3814,ESI Hospital,28.726783,77.126333
39,U01075,Rohini Depot 1 Sec 6,28.71645,77.113467
40,U00305,Chhawla Village,28.5613,77.0021
41,U02615,Ayurvigyan Nagar,28.5604,77.2214
42,DC3691,A-3 Janak Puri,28.619633,77.079183
43,U00430,Mundka Xing,28.682267,77.035917
44,U01237,Dena Apartments,28.794767,77.129233
45,U02162,Roop Nagar,28.6842333333333,77.2023166666667
46,U03695,Jhilmil Xing,28.6763,77.3175
47,U02486,Panchsheel Club,28.543183,77.213617
48,DC4371,Rishal Garden,28.661717,77.04875
49,U01934,Anand Parvat Terminal,28.657113,77.1846
50,DC3979,Zafrabad School,28.68345,77.275017
51,U01725,Shalimar Bagh (Ring Road),28.7033,77.1689
52,DC3777,Balak Ram Hospital,28.707127,77.22279
53,U02525,Hauz Rani,28.5294,77.2159
54,U02714,PS Kamla Market,28.6429,77.2267
55,U02599,Timarpur,28.7012333333333,77.2212666666667
56,U00304,Chhawla Village,28.561492,77.001912
57,U01543,Shadipur Depot,28.653117,77.1555
58,DC3568,Dwarka More Metro Station (Sewak Park),28.619332,77.032508
59,DC4623,Rohini Sec 16/17,28.73845,77.117267
60,DC3545,NajafGarh Delhi Gate,28.61255,76.986917
61,DC4600,Katwaria Sarai,28.540617,77.18505
62,DC1101,Okhla Depot IV CWS II,28.518333,77.284867
63,DC0058,Mukharji Nagar Tank,28.7103,77.2111
64,U01621,B-4 Keshav Puram,28.687583,77.162267
65,U02119,DB Gupta Market,28.651733,77.1946
66,DC4042,Satyam Apartments,28.59875,77.318583
67,U02769,Pragati Vihar,28.5879,77.2293
68,U03006,ITO Ring Road,28.629817,77.24665
69,U00494,Sultan Pur Crossing / Poothkhurd,28.767867,77.049417
70,DC0114,Kalka Ji Crossing,28.55735,77.26965
71,U02369,Shri Ram College,28.689065,77.206953
72,U00375,Chanchal Park,28.646241,77.021823
73,U01449,Kathuria Public School (Sai Darbar Mandir),28.5309,77.146333
74,U01308,Naraina Vihar,28.627517,77.134183
75,DC3854,Prehlad Vihar (Deep Vihar),28.7348,77.0872
76,U01784,Moti Bagh Gurudawara Nanakpura,28.5848,77.1722
77,U03195,Laghu Udyog Sansthan(ModiMill),28.555533,77.265167
78,DC4211,Shalimar Bagh A Block,28.704881,77.169817
79,DC4188,The Uppal Hotel,28.536233,77.102017
80,U02866,Lady Shri Ram College,28.559,77.2373
81,U99725,AkbarRoad,28.61055,77.226083
82,U00761,APS Colony,28.574833,77.141583
83,DC4454,Purani Basti Rewla Tajpur,28.569584,76.977685
84,U02055,Lado Sarai Crossing,28.5273,77.19
85,DC4231,Vivek Vihar Terminal,28.668333,77.314417
86,U01822KWP,Kewal Park,28.7138,77.1799
87,DC3936,National Law University Delhi,28.598367,77.023583
88,DC0099,Onida Factory,28.513,77.2976
89,U02282,Race Course,28.5966,77.2033
90,U01372,Haidarpur Water Works,28.72155,77.140383
91,U02453,BBM Cluster Depot,28.703583,77.210683
92,U03353,Shakarpur,28.6338,77.28215
93,U01357,Punjabi Bagh East,28.6711,77.1393
94,DC4125,Ramesh Park,28.635617,77.26965
95,U03162,SNPD,28.561333,77.260117
96,U00385,Bawana Depot,28.803894,77.028469
97,DC4019,Dauralla Border,28.507925,76.896927
98,DC4517,Chandpur Xing,28.751714,77.014508
99,U00949,Shahbad Dairy Block A,28.7458,77.0985
100,DC3631,Palam Colony Flyover,28.51395,77.091517
101,DC4709,Dabri Crossing (Pankha Road),28.613716,77.085675
102,U00302,Sir Chhotu Ram Polytechnic,28.707177,77.001084
103,U02303,Aurobindo College,28.5327,77.2046
104,U00860,Sunder Vihar,28.6635,77.09225
105,DC4603,NCERT,28.537767,77.193833
106,U02043,Jia Sarai,28.5483,77.1897
107,NS0391,Ridge Road,28.632683,77.18875
108,DC4749,Chhawla Village,28.565657,77.003299
109,DC4062,C2D Janakpuri,28.614332,77.08708
110,DC4726,Dwarka Sec-23 Crossing,28.566703,77.040204
111,DC4626,ESI Hospital,28.726767,77.126317
112,DC4772,Osho Dhyan Mandir Jhatikra Road,28.553981,76.973148
113,U01432,DAV School,28.6998,77.1452
114,U99774,Mata Din Kaur Public School,28.5977,76.8988
115,DC3797,Natthupura,28.768867,77.180733
116,U01817,South Moti Bagh,28.578,77.175
117,DC3751,Shaheed Bhagat Singh Marg,28.63325,77.212283
118,U02964,Pumposh Enclave,28.5437,77.2438
119,U03604,Trilokpuri 13 Block,28.612817,77.306183
120,U03101,Tara Apartment,28.522667,77.25545
121,U99914,ISBT Kashmere Gate,28.666867,77.229367
122,U02588,Mall Road,28.6943666666667,77.2197666666667
123,U00503,Om Vihar,28.621124,77.051543
124,DC0111,Samaspur Jagir Village,28.615767,77.285467
125,U03030,Narmada Apartment,28.527104,77.251689
126,U01758,APS Colony,28.5744,77.142067
127,U01302,Naraina Vihar,28.625783,77.134233
128,U99799,Shaheed Bhagat Singh Nagar,28.725017,77.029167
129,U00900,Peera Garhi Chowk,28.6783,77.0947
130,U02947,DPS / Police Station Nizamuddin (Lodhi Road),28.593133,77.241917
131,DC3671,Kamal Cinema,28.565108,77.198924
132,U00009,Dhansa Village,28.557833,76.867383
133,U01717,South Patel Nagar (Metro Station),28.6453,77.1683
134,DC3648,ARSD College / Dhaula Kuan,28.590667,77.1683
135,U00482,Sukhbeer Nagar,28.727633,77.04895
136,DC4334,Goyla Dairy,28.579766,77.021478
137,DC4500,New Anaj Mandi,28.618964,76.974469
138,DC4185,Dwarka Sec-21 Crossing,28.550845,77.056046
139,DC3548,Prem Nursary,28.610183,76.971267
140,DC4208,Wazir Pur Industrial Area/ Ashok Vihar Crossing,28.701641,77.167185
141,DC4477,Bharthal Village (Shyam Mandir),28.543055,77.043846
142,U02629,Ayurvigyan Nagar,28.5614,77.2222
143,U01101,Rohini Sec 7/9,28.7136,77.1171
144,DC0028,St Stephen Hospital,28.6674,77.2143
145,U00255,Durga Vihar,28.5964,76.9904
146,U00819,C-2-B Janakpuri,28.6219,77.0885
147,U03531,Saraswati Kunj,28.623867,77.301483
148,U99990MC,Central School (MCKR),28.562733,77.2328
149,U01828,Andheria More (Chhatarpur Metro Station),28.507994,77.175266
150,U02700,Ludlow Castle,28.6724,77.226
151,U03327,Shakar Pur School Block,28.6271,77.279467
152,DC3877,TilangPur Kotla,28.649733,77.027233
153,U00500,Rishal Garden,28.6619,77.048783
154,U01371,Punjabi Bagh Terminal,28.675467,77.1404
155,U01966,Model Town-III,28.7061,77.1853
156,U02346,Kendriya Terminal (Pt. Pant Marg),28.62155,77.2062166666667
157,U03052,Railway Road Bridge,28.610933,77.2518
158,U00615,Sultan Puri Crossing,28.682317,77.068783
159,U03126,Shastri Park,28.6726,77.2571
160,U03501,Government Senior Secondary School,28.6317,77.2979
161,DC0079,Chirag Dilli,28.5415,77.2296
162,U01128,PS Mayapuri,28.625217,77.119867
163,DC4414,KharKhari Rondh,28.561696,76.941952
164,DC105,Shaheen Bagh Thokar No 8 (A F Enclave ),28.54925,77.303983
165,U02901,ITPO Gate No. 3,28.6155,77.24015
166,DC4437,Shiv Enclave Dichau,28.623999,76.984556
167,U00217,Dichau Chowk,28.6173,76.983867
168,DC4460,Pandwala Village,28.5657,76.963135
169,U01158,Sadar Bazar,28.5954,77.1227
170,U01977,Model Town III,28.7059333333333,77.18525
171,U01333,Wood Market (Mansarovar Garden),28.638199,77.132423
172,U02757,Bharti Nagar,28.596683,77.228717
173,DC3959,Sunehari Pulla Depot / Jawaharlal  Nehru Stadium Terminal,28.5901157,77.2334405
174,U01288,Shankar Vihar/ National Highway 8,28.566367,77.134283
175,U01236,Mahipal Pur Village,28.54571,77.126809
176,U02237RS,Ravinder Rang Shala,28.640867,77.194933
177,U01835,R K Puram Nab,28.56125,77.1763
178,U00194,Tikri Hospital,28.6869,76.9783
179,U01114,Rangpuri,28.542143,77.118347
180,U02481,Udyog Bhawan,28.6126,77.2122
181,U02515,Vishwa Vidyalaya Metro Station,28.695083,77.215367
182,DC4397,ShivRam Park,28.667833,77.055183
183,U00736,Kapashera Border,28.5217,77.082117
184,U02176,Sant Nagar A-1,28.7387,77.1975
185,U01025,D Block Janakpuri,28.60785,77.10395
186,U03246,B-Block Yamuna Vihar,28.703117,77.270033
187,DC3837,APS School Dhaula Kuan,28.601533,77.168417
188,U01057,DDU Hospital,28.6282,77.111
189,U99789A,Rani Khera Bus Stand,28.7031,77.0279
190,U02112,Rana Pratap Bagh,28.6882666666667,77.1937
191,DC3625,Swaroop Nagar JJ Colony,28.7559,77.162867
192,U02468,HaujRani / MaxHospital,28.5283,77.212
193,U02291,Model Basti,28.6572,77.2038
194,U01096A,More Lines,28.583167,77.116567
195,DC3860,Kirari Railway Xing,28.686583,77.0625
196,U01630PC,Indian AirLine Colony/Priya Cinema,28.558583,77.158
197,U02596,South Extension,28.568367,77.22315
198,U01272,PitampuraMetro Stn (MadhuvanChowk),28.7029,77.1325
199,DC4523,Ishwar Colony,28.794758,77.029958
200,U02309,SJ Hospital,28.569483,77.204517
201,U01498,TV Tower (Power House),28.6997,77.1512
202,DC3982,Shiv Mandir,28.689933,77.28395
203,U01837,Shastri Nagar E Block,28.6711,77.17605
204,U02652,DIPSAR College of Pharmacy,28.5161,77.2237
205,U00932,Tilak Nagar,28.6367,77.097
206,U99881,Gagan Vihar,28.6455,77.2979
207,U02288,Gole Market,28.6347,77.2037
208,DC4374,Ranhola II,28.654617,77.038017
209,DC4703,Chandan Market Greater Kailash- II,28.531741,77.245673
210,DC3774,Christian Kabristan,28.7307,77.1902
211,U03772,Seemapuri Old,28.681,77.3279
212,U01035,New Multan Nagar,28.67755,77.1116
213,U00446,Swarn Park,28.6824,77.0408
214,DC4311,Dichau Kalan Depot,28.629012,76.997728
215,U03662,Gazipur Village,28.63225,77.315683
216,DC3688,Shaheen Bagh Thokar No. 8 (AF Enclave),28.549117,77.303983
217,DC4766,Fire Station Tikri Village,28.671106,76.960371
218,DC3588,Garhi Maidu,28.6992,77.255533
219,U01467,Power House,28.673017,77.14725
220,U03384,East Azad Nagar,28.666167,77.283917
221,U02747,Bharti Nagar,28.5978,77.228467
222,U02105,Pusa Road Petrol Pump Sadhu Vaswani Marg,28.644583,77.192833
223,DC3542,Nangli Dairy,28.619772,77.017944
224,DC3565,Arjun Park,28.618,77.012067
225,DC0078,Alaknanda Apartments,28.525582,77.253435
226,U02462,HaujRani / MaxHospital,28.5285,77.2119
227,U00484,Sukhbeer Nagar,28.727533,77.04895
228,DC0055,CV Raman ITI,28.72095,77.20015
229,U01153,Rohini Depot II,28.729833,77.121833
230,U01196,Rajdhani College / Raja Garden,28.654783,77.125417
231,U01859,RK Puram Sec-1,28.5642,77.1785
232,U02523A,Shivaji Stadium Terminal,28.63275,77.215633
233,U01541,Maharana Pratap Chowk,28.588067,77.1509
234,U00262,Deenpur Village,28.5933,76.9918
235,U01546,Punjab Kesari (Subhash Palace Depot),28.696,77.1558
236,U02272,Gole Market,28.6352,77.2031
237,U01243,Vidya Marg Apartments,28.724633,77.129167
238,DC0117,Ali Village,28.516117,77.296567
239,DC3711,Qamruddin Nagar Terminal,28.682022,77.054099
240,U01080,Janak Setu,28.6104,77.1138
241,DC0011,Avantika Crossing,28.69875,77.0964
242,DC3757,Modern School  Vasant Vihar F Block,28.559967,77.157317
243,U00383,TilangPur Kotla,28.649406,77.027234
244,DC3857,Krishna Colony,28.746817,77.087767
245,DC4689,Balaji Enclave,28.767583,76.964667
246,U99879,Delhi University,28.688417,77.214833
247,U00979,Mangolpur Kalan Village,28.6956166666667,77.1011833333333
248,U01014,Mangolpuri School,28.69465,77.105367
249,U02789,Sheikh Sarai More,28.5328,77.2306
250,DC4543,C P J College,28.857652,77.095746
251,U00449,Dwarka Sec 13-3 Xing,28.602567,77.040983
252,U00592,Nangloi Metro Station,28.682006,77.064933
253,DC4520,Shri Krishna Gaushala,28.779314,77.021694
254,U01013,Meenakshi Garden,28.639983,77.10435
255,U01082,Swarg Ashram,28.631,77.1149
256,U00982,Rithala Village,28.717233,77.1014
257,U03046,Garhi Gaon,28.5621,77.2512
258,U00767,CRPF Camp,28.645917,77.084483
259,U03029,Nehru Place,28.5486,77.2492
260,NS0257,Thimiyan Park,28.60265,77.133483
261,U03790,Shalimar Garden Crossing,28.6885,77.3303
262,DC4314,Dichau Chowk,28.616915,76.983843
263,U02237,Meghdoot Bhawan,28.644,77.200983
264,U03640,Yojana Vihar,28.65965,77.315183
265,U01331,Pittam Pura R U-Block,28.7111,77.1371
266,DC102,Tagore Garden D Block,28.652783,77.111967
267,U01871,RK Puram Sec-12,28.5723,77.1798
268,U03521,Prince Apartment,28.63095,77.3008
269,DC3734,Pusta No 5 Sonia Vihar,28.734583,77.246633
270,U02193,Burari Village,28.754,77.1988
271,U03277,Holy Family Hospital,28.561083,77.275417
272,DC4122,Laxmi Narayan Temple,28.632285,77.199257
273,DC4022,Jhuljhuli Crossing,28.531783,76.9071
274,U02606,Novelty Cinema,28.6614,77.2211
275,U03433,Dharma Apartment,28.620183,77.2903
276,DC4082,Vivek Vihar Terminal,28.667933,77.3145
277,U00190,Nazafgarh Dhansa More,28.612021,76.978565
278,U00389,Kakrola More,28.618905,77.029949
279,U01582,GTK Depot,28.731183,77.158617
280,U03587,Hasanpur Depot,28.635993,77.306815
281,DC3917,Loha Mandi,28.640183,77.1455
282,DC4251,Teen Murti,28.605717,77.199067
283,U00692,M Block Vikaspuri,28.6386,77.078
284,U02702,Ambedkar Nagar Terminal,28.515951,77.225536
285,U02841,Delite Cinema,28.6412,77.2352
286,U03204,Ishwar Nagar,28.5616,77.266217
287,U99643,Kirari Lal Mandir,28.698,77.055467
288,DC3939,Shivani Apartments/ Kunj Vihar Sector-12 Dwarka,28.594117,77.035617
289,DC4059,Babarpur Extension,28.690727,77.278602
290,U03175,Tughalqabad Village,28.509067,77.265117
291,U03185,Govind Puri Metro Station,28.545217,77.2641
292,U02424,Bhavishya Nidhi Enclave,28.5422,77.2097
293,U00226,PS Najafgarh,28.6096,76.9827
294,U00813,Dabri Crossing (Pankha Road),28.613374,77.087756
295,U02830,Patiala House,28.6164,77.2339
296,DC4729,Wazirabad Crossing GT Road,28.710239,77.226842
297,DC4583,Dwarka Sec-23B Crossing,28.564247,77.039619
298,U00906,Desu Colony Janak Puri,28.609871,77.095047
299,DC4537,Old Anaj Mandi,28.845696,77.088817
300,U02543,Palika Kendra,28.628567,77.216783
301,U99892A,Garrison Engg.,28.6053666666667,77.1474333333333
302,DC0005,Rohini West Metro Station,28.715,77.115
303,DC4391,PS Ranhola,28.65355,77.035417
304,DC4145,IGI Airport Terminal 2 (Air India Office),28.557092,77.091787
305,U00662,Gurudwara Vikaspuri,28.6385,77.0743
306,DC4497,CRPF Jharoda,28.638831,76.960643
307,U01814,B2 Block Ashok Vihar Ph II,28.693274,77.177899
308,DC4474,Mundhela Khurd School,28.616066,76.896431
309,U00716,Jwala Puri / Nangloi Depot,28.681417,77.0791
310,DC3976,Seelampur Market,28.673567,77.269983
311,U01939,Bhartiya Sadhu Samaj,28.6038,77.184
312,U03598,GTB Hospital Xing,28.6893,77.3077
313,U02673,Swami Nagar,28.5423,77.2248
314,U00566,Madhu Vihar,28.599883,77.0614
315,DC0129,East Vinod Nagar Depot,28.6219,77.300783
316,U02452,Kalawati Hospital,28.6381,77.2108
317,U01043,Rohini Depot - 3,28.6952,77.1094
318,DC3694,Bharat Nagar,28.566738,77.269676
319,U02862,Red Fort,28.6577,77.2371
320,U00267,Goela Dairy Crossing,28.591193,76.993282
321,U00344,BSF Campus Chhawla,28.547717,77.009283
322,U00680,Janakpuri C-1,28.6182,77.077017
323,U02783,J L Nehru Stadium,28.5841,77.2301
324,U02418,Gurudwara Bangla Sahib,28.625333,77.209333
325,U00867,GSKV School No-1 B-Block,28.6247,77.0922
326,U00002,Dhansa Border,28.562483,76.842883
327,DC4168,CGHS Dispensary,28.644633,77.209433
328,U01720,Shalimar Bagh(Ring Road),28.7037333333333,77.1690166666667
329,DC4560,JJ Colony Bawana Crpf Camp,28.806836,77.04801
330,U03010,Indira Gandhi Stadium,28.6328,77.2472
331,DC3920,Sainik Enclave/Vikas Nagar Nala Road,28.635083,77.025383
332,U00870,C-3 Janakpuri,28.615417,77.092583
333,U01332,Rang Puri Pahari,28.5379,77.1369
334,U02533,Saket Crossing,28.5179,77.216283
335,U00272,Ghevra Crossing (Kanjhawala Road),28.685717,76.994533
336,U00343,BSF Campus Chhawla,28.5479,77.00915
337,DC3897,M Block Greater Kailash- II,28.534913,77.243555
338,U00444,Ranhola Village,28.6561,77.04065
339,U02661,Lodhi Colony 18-Block,28.586733,77.22425
340,U02199,Burari Transport Authority,28.730567,77.198467
341,U02366,Shri Ram College,28.6891,77.2068
342,U02506,Krishi Bhawan / Rail Bhawan Metro Station,28.614867,77.212383
343,DC3605,Swaroop Nagar JJ Colony (GT Road),28.7581333333333,77.1480833333333
344,U01191A,Rajdhani College / Raja Garden,28.6548,77.1254
345,DC4480,Bharthal Chowk (Bharthal Road),28.554056,77.050407
346,DC4039,East Vinod Nagar Depot,28.620079,77.30087
347,U02882,Vayu Sena Bad (Tigri),28.5129,77.2385
348,DC0048,Rithala Crossing,28.7116,77.1074
349,DC3651,CGO Complex,28.588083,77.233667
350,DC4434,Dichau Kalan School,28.642699,76.986388
351,U01754,IA Block Ashok Vihar,28.68605,77.1704333333333
352,U00291,Sai Baba Mandir (Nazafgarh),28.61375,76.99985
353,U01131,Rajouri Garden,28.648821,77.122615
354,U02426,Khalsa College,28.6947,77.2097
355,U02753,Modern School,28.6278,77.2285
356,U01068,Zunk Market,28.618117,77.112183
357,U00211,Tikri Piyau / Azad Hind Gram,28.686817,76.979933
358,U01178,Mahipal Pur Crossing,28.548083,77.125267
359,U04003A,Nehru Place Terminal,28.548512,77.257157
360,U01269,Basai Darapur / Ramesh Nagar,28.653,77.1323
361,DC4308,DTC Apartments,28.697529,77.134098
362,U02339,Panchsheel Club (Sarv Priya Vihar),28.54345,77.207483
363,U01309,Chandra Lok,28.6886,77.1353
364,U03173,Kalkaji Mandir (MaaAnandmayeeMarg),28.547767,77.262833
365,U02123,Talkatora Stadium Garden,28.621667,77.194533
366,U99854A,Okhla Extension (Abul Fazl Encalve),28.5469,77.3066
367,U03181,Kalkaji Mandir,28.55205,77.2645
368,U03043,Rajghat Gandhi Darshan,28.6389,77.2502
369,DC3528,Kair Depot,28.618117,76.930783
370,U00646A,Nangloi JJ Colony,28.682267,77.059767
371,U03013,Raj Ghat,28.6417,77.2471
372,DC3840,Raja Puri,28.60428,77.05483
373,DC4377,Kotla Vihar Phase I,28.65105,77.0302
374,U03683,Maharaj Pur Check Post,28.643267,77.316583
375,U02941,Gupta Market,28.564833,77.241433
376,DC3771,Badli Telephone Exchange,28.74485,77.13265
377,U00751,Prehladpur Village,28.7512,77.080967
378,NS0313,Hansraj College,28.679067,77.208183
379,DC3628,Dwarka Sec 13-3 Xing,28.602717,77.04115
380,DC4457,Pandwala Khurd,28.562304,76.967114
381,DC4706,Kanjhawala Depot,28.727377,77.005256
382,DC4065,Bharti Public College,28.62235,77.09365
383,U02823,Jaipur House,28.6089,77.2333
384,DC4016,Dauralla Village,28.510833,76.895533
385,U03272,Yamuna Vihar Brijpuri,28.702633,77.2737
386,U99966,Power House,28.5058,77.3008
387,U02799,Chirag Delhi,28.540967,77.232083
388,U00478,Maharishi Valmiki Hospital / Pooth Khurd,28.775033,77.047683
389,U02400,Police Station Paharganj,28.646001,77.208094
390,DC3754,Gole Market (Bhai Veer Singh Marg),28.63225,77.205467
391,DC4746,Mitraon Extension,28.6084,76.951551
392,U03336,Jamiya Millia College,28.56115,77.280117
393,DC4769,Tikri Border,28.687166,76.964812
394,U00535,Prem Nagar,28.621961,77.05731
395,DC4606,Sanskrit Vidyapeeth,28.541867,77.18305
396,NS0256,Thimiyan Park,28.602817,77.133517
397,U03349,Shahdara (Shyam Lal College),28.67307,77.282696
398,DC4228,Surya Nagar,28.66785,77.32135
399,U01490,Inderpuri A-Block,28.6287,77.1511
400,U01557,Ram Pura (Ashok Park),28.6714,77.157083
401,U03675,NHW-24 Xing (Gazipur Xing),28.630333,77.316283
402,U00491,Kiran Garden,28.62081,77.048338
403,U02048,T B Hospital,28.5283,77.1897
404,U01402,Shakurpur Shiv Mandir,28.680921,77.142863
405,U02591,Prithviraj Road Crossing,28.59745,77.220083
406,U03429,Shahdara Railway Bridge,28.6749,77.2898
407,U02853,Masjid Moth,28.54085,77.236067
408,U01826,Bapu Dham,28.5994,77.1758
410,U99808,Madan Pur Dabas,28.715933,77.027883
411,U01749,RK Puram Sec-9,28.5713,77.1707
412,U03056,C R Park Market 2,28.537903,77.252411
413,U01375,New Moti Bagh B Block,28.66365,77.140683
414,DC4245,Tyag Raj Marg,28.6091,77.202983
415,U02878,Delhi Gate (JLN Marg),28.6400333333333,77.2380333333333
416,DC4683,Jatt Khor Village,28.78945,76.975483
417,DC4291,Shakur Pur JJ Colony/ Britannia,28.684313,77.14563
418,U02244,PNB Geetanjali,28.529313,77.2013
419,NS0394,NDPO,28.6256,77.2064
420,DC0031,Wazirpur Depot Road No 41 (Subhash Place Market),28.6937,77.1512
421,DC4331,Nehru Bus Stand Goyla Dairy,28.580514,77.019268
422,DC3668,RK Puram Sec-10,28.5702,77.173167
423,U01071A,Shiv Murti,28.536033,77.1119
424,U02514,Shivaji Stadium Terminal,28.633083,77.21545
425,U99646,Bawana,28.800011,77.035613
426,U03556,Badarpur Border,28.4927,77.303817
427,DC3794,Tahir Pur,28.691367,77.324967
428,U03673,Sunder Nagri,28.6928,77.3162
429,U02820,Turkman Gate / G B Pant Hosipatal,28.6417,77.2333
430,U01926,Bara Bagh,28.7017,77.1828
431,U03478,Meet Nagar,28.70025,77.297667
432,U01398,ISIC Hospital (Verma farm),28.53395,77.1427
433,U01539,C-4 Keshav Puram,28.6904,77.154983
434,U01957,Bharat Nagar Xing,28.6809,77.1846
435,U02699,Old Delhi Railway Station (Fatehpuri),28.660295,77.224901
436,U00012,AIR Force Camp,28.5633,76.8719
437,DC4417,Ghuman Hera School,28.537022,76.922455
438,U03213,DDA Kalkaji Extn,28.526817,77.2669
439,U00445,Harijan Basti,28.707367,77.040317
440,U01549,Shadipur Colony,28.6516,77.1561
441,U03610,Vijaya Laxmi Apartment,28.6289,77.309017
442,DC4268,Radhu Palace,28.636483,77.285567
443,DC3731,Gatta Factory Sonia Vihar,28.730183,77.24575
444,U01098,Rohini Sec-9 /7,28.7138,77.1172
445,U99986,Vikaspuri Xing,28.6276,77.0697
446,U00683,Pooth Kalan,28.71425,77.0770666666667
447,DC4509,Lado Sarai Crossing,28.52425,77.189967
448,U00401,Karala Crossing,28.731617,77.03235
449,DC4486,Baba Haridass Nagar,28.623725,76.970389
450,U00538,Prem Nagar,28.62211,77.056846
451,U03528,Saraswati Kunj,28.6239,77.3012
452,U00021,Bakkar Garh Xing,28.591717,76.885917
453,U02586,INMAS,28.703583,77.219917
454,U03149,ISBT Sarai Kale Khan,28.588832,77.258796
455,U01990,Hyatt Hotel,28.5702,77.1857
456,U00425,Rama Park,28.619965,77.036719
457,U01945,Subhadra Colony,28.671105,77.184219
458,U03621,Hassanpur Village,28.6363,77.3103
459,U03000,Nizamuddin Extension,28.589233,77.2463
460,U03084,Guru Ravi Das Ashram / Tughlaqabad Extension,28.51945,77.254483
461,U02888,Vayu Sena Bad (Tigri),28.5129,77.2389
462,U01030SB,Shahbad School,28.7456833333333,77.10735
463,U02639,Lodhi Colony,28.591683,77.2235
464,DC4586,Pochhan Pur Village Crossing,28.55919,77.038894
465,U01162,Metal Forging,28.6298,77.1233
466,U00808,Kapashera Crossing,28.5313,77.08815
467,U01765,Officer Enclave S.P Marg,28.597,77.1713
468,U01363,Pittampura BU-Block,28.7164,77.1396
469,DC4632,Issapur Village Temple,28.577244,76.86377
470,U00685,C1 Janak Puri,28.6178,77.0771
471,U00910,B Block Mangol Puri,28.689117,77.09555
472,DC4778,Ghuman Hera Crossing,28.52758,76.951074
473,U01139,Rohini Sec-16 Xing,28.7437,77.1216
474,U03637,Chand Cinema,28.612983,77.3125
475,DC4340,Police Post,28.577292,77.035195
476,U00996,St. Xavier School Shahbad,28.7456,77.103
477,DC0066,Sunehari Pulla Depot / Jawahar Lal Nehru Stadium Terminal,28.59155,77.233117
478,DC4732,Ram Vihar,28.657602,77.310617
479,DC4048,Dashmesh Public School,28.598583,77.311283
480,U01220,Raja Garden,28.650783,77.1262
481,U01880,Bharat Nagar,28.6806,77.1799
482,U03100,Shastri Park,28.6729,77.2553
483,U01006,Pal Colony,28.7235,77.1036
484,DC4194,Dwarka Sec-6/7,28.59012,77.068955
485,DC4440,Dichau Chowk,28.617384,76.983711
486,ST2148,Mori Gate Terminal,28.665873,77.222024
487,U00273,FCI Ghevra,28.692392,76.9942
488,U02319,Bara Hindu Rao,28.6608666666667,77.20415
489,U01386,Samrat Enclave,28.68525,77.14105
490,DC3883,Dhool Siras,28.552849,77.035179
491,DC3577,Shastri Park,28.673083,77.25405
492,U00441,Ranhola II,28.654476,77.038017
493,U01729,South Patel Nagar (Metro Station),28.6454,77.1689
494,U01648,Vasant Lok,28.56035,77.164417
495,U02407,Maidan Garhi Crossing (SDM Court),28.519067,77.2088
496,U02999,Sant Nagar,28.552367,77.246167
497,DC3677,Mangol Puri J Block,28.697888,77.083427
498,U00871,PS Mangol Puri,28.6965,77.091882
500,U01930,New Rajinder Nagar Post Office,28.636825,77.182967
501,DC3783,Mangol Puri Y Block,28.70275,77.0881
502,NS0454,Doulat Ram College,28.6882,77.2063
503,U00560,Kirari Gaon,28.693676,77.060986
504,U03732,Shahdara Border,28.6775,77.323
505,DC4655,Delhi Police Training School,28.721483,77.258417
506,DC4755,Badu Sarai Village,28.52973,76.986455
507,DC4363,Keshav Nagar Mukti Ashram,28.779129,77.179635
508,DC4463,Okhla Village (Temporary),28.562333,77.29185
509,DC4071,Faiz Road,28.648227,77.198819
510,U01464SC01A,Siras Pur Chhattri,28.759852,77.129265
511,U01385,APS Colony/ Jharera Gaon,28.579433,77.145
512,U01845,Railway Colony (Sardar Paltel Marg),28.600683,77.17805
513,U02072,11 Murti,28.61105,77.1907
514,DC3988,Chhajupur,28.6894,77.287
515,DC3965,Kapashera Village Bijwasan Road,28.52773,77.076142
516,U01600,Todapur Village,28.6233,77.1598
517,DC3823,Rohini Sec 11 Pkt A (Swarn Jayanti Park),28.72795,77.114917
518,DC3591,Zero Pusta,28.6778,77.256783
519,U03396,Shahdara Terminal,28.674286,77.287117
520,U01284,DTC Apartments,28.6977,77.1339
521,U01248,Madhuban Chowk Outer Ring Road,28.703,77.1298
522,U01393,Kohat Enclave Metro Station,28.6974166666667,77.1421
523,U01330,Punjabi Bagh Terminal,28.66735,77.137317
524,U01782,R K Puram Sec-7,28.5706,77.1727
525,U01286,DTC Apartments,28.6975,77.1341
526,DC3760,Surya Niketan,28.655733,77.310317
527,DC0014,Railway Road Bridge,28.609851,77.251781
528,U02902,Darya Ganj,28.644033,77.24035
529,DC3654,Exchange Store / Civil Lines Metro Station,28.676783,77.224833
530,U02571,Mall Road,28.693617,77.2184
531,DC0136,CRPF Camp / Crown Plaza,28.527867,77.272383
532,U02207,Faiz Road,28.648267,77.199017
533,DC3906,C Block Mangol Puri,28.692367,77.0906
534,U00300,Hiran Kudna Crossing,28.684683,77.000967
535,DC3948,Rani Bagh Railway Colony,28.6839,77.12795
536,U01520,Pandav Nagar,28.650051,77.153678
537,U02785,ISBT Kashmere Gate,28.666756,77.229348
538,U00349,Dariyapur Gaon,28.812783,77.00915
539,U01804,East Patel Nagar,28.6404,77.1742
540,U02455,PS Tughlaq Road,28.599883,77.2112
541,U99926A,Telephone Exchange Karol Bagh,28.64315,77.181917
542,DC4423,KharKhari Rondh,28.56176,76.941887
543,U00453,Mohan Garden,28.620385,77.040795
544,U03760,Mayur vihar Phase-III Crossing,28.601583,77.326033
545,DC4572,Chandpur Xing,28.75134,77.014497
546,DC4380,Chanchal Park,28.646333,77.021767
547,U02345,Gurudwara Rakab Ganj,28.6185,77.206
548,U02417,Kidwai Nagar,28.5735,77.2095
549,DC4403,Nangloi,28.681483,77.06735
550,U02924,Sunder Nagar,28.605117,77.24045
551,U01019,Lajwanti Garden,28.614,77.1062
552,U01017,Visram Chowk,28.70915,77.1055833333333
553,DC0037,Dera Satguru Sewaram Sahai Sec 24/25,28.7297,77.094967
554,U01424,Moti Nagar,28.658615,77.144108
555,DC3737,Check Post,28.739367,77.24745
556,U00201,Jharoda Crossing/Nazafgarh Terminal,28.613617,76.979717
557,DC3928,Nanak Piyau / DTC Colony,28.69105,77.1927833333333
558,U02741,Central School Lodhi Colony,28.5848,77.22815
559,U03738,Fire Station,28.605067,77.322683
560,U00526,Rajapuri,28.6738,77.0551
561,DC0089,Raghubir Nagar N Block,28.6593666666667,77.11245
562,U02717,Ambedkar Nagar Terminal,28.515935,77.226604
563,DC4317,Chand Nagar,28.645206,77.099338
564,U01291,Pitampura JD Block,28.70185,77.13455
565,U99608,Rajeev Nagar,28.724983,77.058433
566,U00424,Dwarka Sec 13,28.605567,77.036383
567,DC4154,Sarojini Nagar Depot,28.573304,77.190001
568,U02998,Nizamuddin Extension,28.589633,77.2463
569,U02672,Mori Gate Terminal,28.667,77.2247
570,U01692,Pusa Quarters,28.630033,77.166983
571,U01251,Madhuvan Chowk,28.7046,77.13
572,DC4672,Sant Vivekanand School,28.74225,76.9865
573,U01777,R. K. Puram Sec-12,28.5757,77.1724
574,DC4695,Sant Vivekanand School,28.7423,76.986717
575,DC4131,Le Meridian Hotel,28.619333,77.2176
576,DC4108,RK Khanna Tennis Stadium,28.558333,77.187283
577,DC4649,D Block Surajmal Vihar,28.66013,77.30766
578,U03317,Shakarpur School Block,28.627433,77.279283
579,DC3843,Air Force Officers Flats Dhaula Kuan,28.600967,77.167867
580,U02136,Shakti Nagar Nangia Park,28.68035,77.196233
581,U00774,Major Bhupinder Singh Nagar,28.6469,77.0848
582,DC4446,Daulat Pur Crossing,28.543634,76.970812
583,U01561,Ram Pura (Ashok Park),28.67148,77.157173
584,U01502,Subroto Park (Arjun Path),28.574317,77.151517
585,U01628,Dhaula Kuan,28.60005,77.162017
586,U01994,Qutab Minar,28.5264,77.1861
587,U03136,Air Force Station,28.511733,77.257867
588,U02290,Padhmini Enclave,28.5498,77.2038
589,DC4592,Majnu Ka Teela Ring Road,28.69765,77.22741
590,U02538,Gandhi Vihar,28.7223,77.2165
591,U01857,Andheria More / Chhatarpur Metro Station,28.509217,77.178967
592,U00233,Najafgarh Delhi Gate,28.6118,76.9856
593,DC4569,Shri Krishna Gaushala,28.779613,77.022005
594,U02647,Ajmeri Gate / Kamla Market,28.6448,77.223733
595,U99659,Inder Enclave,28.700788,77.050516
596,DC4234,ESI Hospital,28.66605,77.310783
597,DC3697,H-3 Vikas Puri,28.645922,77.079312
598,U01085,Ordinance Depot,28.6768,77.1148
599,DC3720,Gurudwara Bangla Sahib,28.628133,77.2094
601,U02732,Defence Colony (Homyopathic College),28.571983,77.227667
602,DC0086,Saiyyad Nagar Dilshad Garden,28.682567,77.33155
603,U01955,Gujranwala Town,28.6996,77.1845
604,DC3820,Sarita Vihar D Block / Madanpur Khadar Village,28.532267,77.296383
605,DC3640,Palam More,28.568033,77.130033
606,U03150,DDA Market Kalkaji,28.530617,77.258533
607,U01681,Jahangirpuri B Block,28.7293,77.1662
608,U03186,Maharani Bagh / Ashram,28.576633,77.26445
609,U00847,Q-Block Mangolpuri,28.6877,77.0913
610,U99985A,Tagore Garden Gurudwara / Holy Child School,28.650417,77.113733
611,U01716,ARSD College (Dhaula Kuan),28.590383,77.168467
612,U00956,Desu Colony,28.6111,77.0989
613,U00955,Fateh Nagar,28.6312,77.09885
614,U02944,ITO,28.6291,77.241517
615,DC4343,Amrohi More,28.574817,77.0513
616,U01024,Mangolpur Police Lines,28.6945,77.1066
617,U03131,DDA Market Kalkaji,28.529982,77.258506
618,DC3943,Sapera Basti Crossing,28.6181,77.336267
619,U01217,Government Press,28.634617,77.127633
620,U03066,Nizamuddin Railway Station,28.586433,77.25305
621,DC3869,Narain DharamKanta,28.670618,77.057884
622,U01829,Anand Parbat Industrial Area,28.6648,77.1754
624,U03294,Okhla Phase 1,28.520517,77.277267
625,U03258,Bharat Nagar Crossing,28.5622,77.2723
626,U02145,Talkatora Stadium,28.6263,77.1965
627,U02388,Malka Ganj Terminal,28.677583,77.2078
628,U02536,Sadhna Enclave,28.542983,77.216433
629,U03431,P S Pandav Nagar,28.6147,77.2903
630,DC0133,Khichdipur,28.624633,77.3095
631,U99828A,Samalka Crossing,28.53795,77.09365
632,U02044,Bhikaji Cama Place,28.568,77.1896
633,DC3806,Satyawati College,28.695345,77.179374
634,U02962,ITO,28.628183,77.24515
635,U03631,GTB Hospital,28.6843,77.311
636,U00991,West Enclave,28.6936,77.1023
637,U02021,Dev Nagar,28.6564,77.1881
638,U03809,Mayur Vihar Phase III A1 Block,28.608717,77.33715
639,DC4758,Nanak Heri School,28.52389,76.98659
640,U02323,Kendriya Terminal / Gurudwara Rakab Gunj,28.6212,77.2053
641,U02844,Bapa Nagar,28.6057,77.2351
642,U03094,Tara Apartments Terminal,28.523828,77.255068
643,DC4546,Sec A-9 and A-6 Narela,28.851771,77.097849
644,U02930,CGO Complex,28.587033,77.2408
645,U00289,Ghevra Village,28.696417,76.997967
646,U00875,Janak Puri B-3,28.622917,77.09275
647,U00522,ShivRam Park,28.667651,77.055346
648,U00919,Peera Garhi Chowk,28.679533,77.09575
649,U03200,Kalka Ji Depot Govindpuri,28.5383,77.2658
650,DC3743,Chauhan Patti (Terminal),28.754859,77.243323
651,U03041LN,Lajpat Nagar Crossing,28.5643,77.2501
652,U01116,Tagore Garden,28.644217,77.1133
653,DC3594,Shastri Park DMRC Depot,28.674167,77.243433
654,DC4609,Ber Sarai,28.549483,77.180617
655,U02548,Nirman Bhawan,28.61035,77.217217
656,U00729,District Centre Outer Ring Road,28.6327,77.0811
657,U03451,Radheypuri,28.655,77.2919
658,DC3680,Gazi Pur DDA Flats,28.6229,77.319767
659,DC3531,Kair Depot,28.618288,76.930672
660,U01042,Lajwanti Garden,28.6129,77.1096
661,DC4068,Janki Devi College,28.641629,77.1898
662,U03728,Surya Nagar,28.6668,77.3217
663,U02553,Prithvi Raj Road Crossing,28.5965,77.2174
664,DC4217,Shalimar Bagh BA Block,28.708633,77.161828
665,U03376,East Azad Nagar,28.666617,77.2832
666,U03644,Dilshad Garden School,28.6808,77.3136
667,U02738,JLN Marg,28.6421,77.22785
668,U03054,Rojdoot Hotel,28.5827,77.2525
669,U01801,South Moti Bagh,28.5778,77.1742
670,U01838,Jahangir Puri Outer Ring Road,28.73425,77.17645
671,U01744,Daya Basti Flyover,28.666346,77.169943
673,U03097,Gamri Extn Pusta No.5,28.6957,77.2551
674,U01542,Shadipur Depot,28.6536,77.1553
675,U01452,Badli Xing,28.7284,77.1463
676,U01512,Mukraba Chowk,28.7323,77.1521
677,U99882A,Jahangirpuri GT Road (Metro Station),28.7257,77.163
678,U01555,Todapur Village,28.624,77.1565
679,U02117,DB Gupta Market,28.651809,77.19481
680,DC4045,Doctors Apartments,28.598683,77.31885
682,DC3657,Ram Jas Road,28.658993,77.191289
683,DC0069,Khayala More/ Subhash Nagar Crossing,28.642984,77.10738
684,DC3903,PS Bawana,28.8065666666667,77.023
685,U02616,Delhi Vidhan Sabha,28.6878,77.2214
686,U02435,Kidwai Nagar (INA Colony),28.5761,77.2099
687,U01143,Rajouri Garden,28.648433,77.120783
688,U02480,SJ Madrasa,28.586683,77.212767
689,U03769,Mayur vihar Phase-III Crossing,28.6017,77.32755
690,U03435,Surajkund Crossing,28.5017,77.291
691,DC4214,Shalimar Bagh BH Block,28.715233,77.156869
692,U02618,Vigyan Bhawan,28.610033,77.221967
693,U01481,R R Line,28.596167,77.1504
694,U00832,Mangolpuri Y Block,28.702717,77.089517
695,U02877,Golf Club / Sunder Nagar,28.601367,77.237883
696,U03588,Balco Apartment,28.6299,77.3067
697,DC3925,C-1 Keshav Puram,28.683117,77.1545
698,U00015,Qadipur,28.5782,76.8798
699,DC4420,Ghuman Hera School,28.537115,76.922376
700,U03482,New Rajdhani Enclave,28.642483,77.29635
701,U01812,Daya Basti,28.6649,77.1747
702,U02634,Super Bazar,28.632583,77.22305
703,U02036,Chowki No 2 / Gulabi Bagh Crossing,28.6769833333333,77.1889
704,U03015,IP Power Station / ITO Ring Road,28.624517,77.247117
705,DC4114,Geeta Colony Block 5,28.653174,77.271397
706,DC0034,Power House Rohini Sec 24,28.727167,77.080283
707,U02793,Pushpa Bhawan,28.5271,77.2311
708,U00511,Qamruddin Nagar Terminal,28.682183,77.054367
709,U00312,Kanjhawala Depot (Narela Road),28.727519,77.002541
710,DC3634,IOL,28.57535,77.116967
711,DC4612,Sai Apartment,28.720883,77.134467
712,DC3534,Tilak Nagar,28.63545,77.09295
713,U99782,East Vinod Nagar Depot,28.6227,77.3039
714,U00734,Krishna Park,28.6392,77.0817
715,U00025,Mata DanKaur Public School,28.597584,76.899172
716,U03718,Gazipur Dairy Farm,28.6203,77.3208
717,U99791,Shaheed Bhagat Singh Nagar,28.724891,77.029213
718,DC4320,Chaukhandi,28.64706,77.09563
719,WPD,Wazirpur Depot / Subhash Place Depot,28.694867,77.15485
720,U02041,Bhikaji Cama Place,28.568,77.1893
721,U00447,Harijan Basti,28.707417,77.040383
722,U02856,Red Fort,28.6541,77.236433
723,DC4297,Mahindra Park Road No-44,28.684023,77.135913
724,DC4128,Geeta Colony Block 5,28.653217,77.271333
725,U03432,Dharma Apartment,28.6199,77.29005
726,U99751,Ranhola Extension,28.6584,77.04395
727,DC4274,Ramleela Ground Geeta Colony,28.654483,77.274867
728,DC4506,Surehra Village,28.59870792487,76.9364446428843
729,U03036,Hamdard Nagar / Sangam Vihar,28.511967,77.249783
730,U00640,Dwarka Sec-1 Mahalaxmi Apartment,28.5961,77.0719
731,U01389,Moti Nagar Market,28.657233,77.14125
732,DC4529,JJ Colony Bawana Road,28.806709,77.047729
733,U02023,Gulabi Bagh,28.674998,77.188525
734,U00555,Uttam Nagar,28.622733,77.060223
735,U03125,Shastri Park,28.6723,77.2571
736,U02635,Balak Ram Hospital,28.7049,77.2231
737,U01135,Deepali Chowk,28.6980166666667,77.1195
738,U02466,Rail Bhawan Metro Station / Krishi Bhawan,28.61495,77.212067
739,DC4337,Qutub Vihar Phase-I Kikar Stand,28.5784,77.029767
740,DC4443,Shikar Pur Crossing,28.545597,76.965275
741,DC0103,Ram Vihar,28.657733,77.310467
742,DC4775,Kanya Sarvodya School Shikar Pur,28.523752,76.955578
743,U01931,IIT Hostel,28.5497,77.18555
744,U03471,Maruti Factory,28.5187,77.2952
745,DC4383,Baprola Village,28.640967,77.011733
746,DC4051,C4 Yamuna Vihar Crossing,28.70065,77.283667
747,U00643JC,Jain Colony,28.75375,77.0728
748,U02216,Burari Village,28.7541,77.199
749,U01576,Prem Bari Pul,28.6999,77.1583
750,U00807,C2D Janakpuri,28.61446,77.086985
751,DC4191,R K Puram Sec 9,28.574718,77.168577
752,U00803,Hanuman Mandir Rohini Sec 24,28.722883,77.087733
753,U99882,Jahangirpuri GT Road,28.725467,77.162833
754,U01213,Kibri Place,28.6044,77.1273
755,DC4635,Corporation Bank,28.575478,76.866722
756,DC4489,PTS Jharoda Kalan,28.64293,76.958068
757,U03088,Gamri Ext / Pusta 5,28.695467,77.254783
758,U01852,RK Puram Sec 1,28.563,77.1783
759,DC3886,Pochan Pur Village,28.558449,77.043126
760,U03712,Ram Prastha Crossing,28.6608,77.3202
761,U03113,Desh Bandhu College,28.541258,77.255656
762,U02858,Red Fort,28.65405,77.23645
763,U01760,Janak Vihar,28.6314,77.1711
764,DC3909,Hari Nagar (Mohan Mandir) Mayapuri,28.630683,77.124267
765,U01827,Rajender Nagar,28.641,77.1759
766,DC3674,Mangolpuri K Block (Sanjay Gandhi Hospital),28.694728,77.081911
767,U02171,Dhaula Peer,28.52255,77.19315
768,DC3717,GTB Nagar / Haqiqat Nagar,28.698158,77.207636
769,U02387,Ice Factory (Roshanara Road),28.66745,77.20765
770,U00527,Bharthal Under Pass,28.5477,77.0568
771,U00610,C Block Vikaspuri,28.633233,77.06885
772,DC3968,Kapashera Village Bijwasan Road,28.527567,77.076117
773,U01390,Samaypur School,28.744211,77.143076
774,U01693,Bhalaswa Xing,28.7371666666667,77.1682
775,U02253,IIT Gate (Aurobindo Marg),28.54585,77.201967
776,U01996,Telephone Exchange,28.6975,77.1862
777,U03436,Okhla Village,28.563423,77.291309
778,U99993,Jahangirpuri GT Road,28.7252,77.1634
779,DC4466,Mundhela Kalan School,28.60529,76.893629
780,U02707,PT College Kotla,28.5699,77.2263
781,U00656,Dwarka Sec 1,28.594283,77.073867
782,U02408,Panchsheel Club,28.544567,77.208833
783,U01168,Madipur Village,28.675967,77.123833
784,DC3780,CRPF Camp Okhla Phase 1,28.52855,77.270367
785,U01206,Raja Garden,28.6513,77.1266
786,DC0040,Rithala Village,28.725917,77.100106
787,DC0083,Jija Bai Udyogic Sansthan,28.555283,77.214017
788,DC4008,Samaspur Khalsa,28.578317,76.909933
789,DC4031,Mayur Vihar Phase II,28.620333,77.304833
790,DC3962,Bijwasan Railway Crossing,28.533133,77.055717
791,U00564,Kirari Gaon,28.693783,77.061067
792,U99795,Kanjhawala Chowk,28.7377,77.0077
793,DC108,Nai Basti,28.5616,77.2945
794,DC0017,Vidhan Sabha Metro Station,28.6877833333333,77.2214333333333
795,DC3985,Hardev Puri,28.689533,77.29595
796,U02360,GTB Nagar,28.69835,77.2057
797,U00317,Kanjhawala Haryana Shakti C-School,28.713983,77.003267
798,U02026,R K Puram Sec-2,28.5616,77.1885
799,DC4254,Sena Bhawan,28.60815,77.206667
800,U02795,ISBT Ring Road,28.671267,77.231183
801,U03622,GTB Hospital,28.6855,77.3104
802,DC4300,Road No-44 Crossing,28.686086,77.135974
803,U01834,Shastri Nagar E Block,28.671267,77.176283
804,U03057,Majeedia Hospital,28.515017,77.252617
805,U00988,West Enclave,28.6931,77.1017
806,U02626,Scindia House,28.6287,77.2219
807,U02929,Express Building,28.6339,77.2408
808,U03268,Seelam Pur Petrol Pump,28.672117,77.273467
809,DC4426,KharKhari Nahar,28.58704,76.959128
810,U99852,Unani Hospital / Okhla Ext Thokar 3,28.55898,77.296216
811,U02381,Yusuf Sarai,28.5627,77.2077
812,U02377,Yusuf Sarai,28.5626,77.2074
813,U02300,Jhandewalan,28.646833,77.204083
814,U00721,New Dwarka Road / Seetapuri,28.60955,77.08075
815,DC3597,New Sabzi Mandi,28.7143,77.172217
816,U03828,Mayur Vihar Phase III Crossing,28.615983,77.34145
817,DC3763,Sukhdev Vihar,28.558983,77.273067
818,DC3863,Shivaji College,28.654841,77.121799
819,DC3740,Sabhapur More,28.750167,77.24385
820,DC4400,Qamruddin Nagar,28.6744,77.060767
821,DC3889,DTC Rajghat Depot,28.640467,77.25775
822,DC4549,Kasturi Ram School,28.837258,77.098101
823,DC4526,Bawana Village,28.799966,77.035368
824,U99863,CWG Village / PWD Office,28.6036,77.2691
825,U03412,East Krishna Nagar,28.659883,77.28835
826,U03241,Welcome Colony,28.6711,77.2698
827,DC4669,Ladpur School,28.739083,76.998467
828,U01745,Vasant Kunj Sec-A Pkt-BC,28.51035,77.170483
829,U03719,Anand Gram,28.688783,77.321617
830,U03463,Shashi Garden Xing,28.6136,77.2937
831,U01021,Mangol Pur School,28.6948,77.106467
832,U02906,National Stadium,28.610497,77.24023
833,U99611,Radha Swami Satsang / Rupali Enclave,28.733933,77.020783
834,U01505,Guru Govind Singh College,28.698033,77.15165
835,U01476,ESI Dispensary,28.6605,77.1475
836,U03333,Jamiya Millia College,28.5609,77.2798
837,U01255,Rohini Sec 18 Bus Terminal,28.744967,77.130533
838,U02305,Kendriya Terminal,28.617483,77.203817
839,U03992A,Gupta Market,28.565133,77.239733
840,DC4675,Jonti Village,28.753289,76.971848
841,U02033,State Bank Colony,28.6954,77.1883
842,DC3660,Peeragarhi Chowk,28.67915,77.096067
843,DC4652,Khajuri School,28.711383,77.257017
844,DC4629,Goodwill Apartment,28.791,77.13465
845,U02083,Green Field School,28.56584,77.194365
846,U99868,New Delhi Railway Station Gate 2,28.6419497,77.22373542
847,DC4151,Aero City Metro Station,28.5484,77.12066
848,U00643,Jain Colony,28.7539,77.072883
849,U03345,Shakarpur,28.633517,77.282067
851,U03166,Govindpuri,28.538825,77.261639
852,U03679,Anand Vihar ISBT Terminal,28.645868,77.315375
853,U01666,Zakhira Flyover,28.66865,77.1654
854,U01763,E Block Jahangir Puri Terminal,28.7330833333333,77.17265
855,U00431,Rama Park,28.6198,77.0372
857,U00371,Mundka Main Rohtak Road School,28.683033,77.024517
858,U01805,South Moti Bagh (Ring Road),28.58195,77.174283
859,DC3700,H-3 Vikas Puri,28.646583,77.0794
860,DC4692,Jonti Village,28.75315,76.9724
861,DC4589,Raksha Vigyan Kendra / Metcalf House,28.68198,77.22901
862,U00677,Surajmal Stadium,28.681783,77.072983
863,DC4197,NHAI Building/ Dwarka Sec-10 Metro Station,28.578409,77.058932
864,U00595,Nangloi,28.681617,77.06725
865,U03287,MB Road,28.5058,77.276283
866,U02146,Dr. RML Hospital,28.6226,77.1966
867,U01440,Shakur Pur,28.684483,77.145283
868,U01458,Inder Puri (Krishi Kunj),28.6371,77.1468
869,U03498,ITI Khichiripur,28.613,77.2977
870,U03055,Delhi Secretariat,28.62795,77.25235
871,U02457,Patel Chowk,28.6244,77.2112
872,U00839,Meera Bagh Apartment,28.6572,77.0908
873,U03509,Mansarovar Park Metro Station,28.6759,77.2999
874,U00336,Baprola School,28.63845,77.00785
875,U02554,Claridges Hotel,28.602117,77.21765
877,U01938,Amrit Vihar,28.7643,77.1838
878,U00770,Major Bhupinder Singh Marg,28.64735,77.084783
879,U01791,Munirka DDA Flats,28.555433,77.17635
880,DC4237,Satyam Enclave / Jhilmil DDA Flats,28.666733,77.30465
881,U02703,Ajmeri Gate / Kamla Market,28.6440833333333,77.22405
882,U99952,Jor Bagh,28.585683,77.2168
883,U02620,Vidhan Sabha Metro Station,28.68775,77.22165
884,DC3574,Tilak Nagar / Sant Pura,28.638917,77.100467
885,U02495SB,Krishi Bhawan,28.6169,77.213617
886,U01321,Naraina Village,28.6186,77.1362
887,DC4503,Sainik Enclave Jharoda,28.634639,76.963163
888,DC4111,Sujan Singh Park,28.600817,77.228917
889,U00959,Avantika Sec-2,28.7019333333333,77.0991
890,DC3723,Sant Nagar Main Market,28.741983,77.1978
891,U03286,Laxmi Nagar Metro Station,28.630967,77.277767
892,DC4566,Ishwar Colony,28.794709,77.030052
893,DC4025,Ujwa Gaon,28.568783,76.9067
894,U03814,Mayur Vihar Phase III A1 Block,28.608467,77.33735
896,U00742,Krishna Park,28.6391,77.0819
897,U02271,Saket Metro Sation,28.5206,77.203
898,DC4555,Bharat Mata School,28.833074,77.076871
899,NS0375,DDA Flats Kalkaji,28.5254,77.2568
900,DC4532,Sanoth Xing / Ghogha Xing,28.819907,77.06374
901,DC4601,Qutub Hotel,28.539133,77.189533
902,U01209,Rajouri Garden Market,28.6453,77.1268
903,DC0046,Rohini Sec 22/24 Crossing,28.720656,77.069805
904,DC4678,Balaji Enclave,28.767498,76.96456
905,NS0505,Dwarka Sec 3/4,28.602367,77.042683
906,DC4701,S Block Greater Kailash- II,28.52922,77.245027
907,DC4578,Malik Pur Village Crossing,28.552333,76.907483
908,U01299,Lok Vihar,28.6927,77.135
909,DC4432,Khera Village,28.596312,76.964794
910,U02870,Savitri Cinema,28.54175,77.23855
911,U99712,Rajghat Gandhi Darshan,28.639,77.2513
912,DC4386,Jai Vihar,28.6316,77.000483
913,U03996A,Jaitpur Mor,28.497367,77.302117
914,U02750,Metcalfe House,28.6807,77.2281
916,U02090,DDA Flats Lado Sarai,28.529833,77.192117
917,U01923,R K Puram Sec-3,28.55877,77.18227
918,U03158,Tughlaqabad Extn,28.5255,77.2607
919,U02711,Kasturba Gandhi Crossing,28.6234,77.2266
920,DC4240,Vivekanand Mahila College,28.665467,77.314517
921,U99679Z,Tehkhand Depot DTC,28.510917,77.281167
922,U01807,Sabji Mandi Azadpur,28.7143666666667,77.1722
923,U02649,New Delhi Railway Station Gate 2,28.64192836,77.22374256
924,U02393,Patel Chest,28.691304,77.208108
925,U02401,Hansraj College,28.6793,77.2084
926,U02979,Vijay Ghat,28.6578,77.2448
927,U00802,Keshopur Depot,28.6525,77.0876
928,U01395,ISIC Hospital (Verma farm),28.533917,77.142483
929,U01588,GTK Depot,28.731117,77.158967
930,U01065,Shahbad Daulatpur Gaon,28.745183,77.1121
931,U00499,Sultan Pur Crossing / Poothkhurd,28.767917,77.049267
932,U03461,Jagatpuri  A Block,28.651833,77.293083
933,U02807,Old Delhi Railway Station,28.6579,77.2319
934,U01275,NHW 8,28.569183,77.1326
935,U02851,LNJP Hospital,28.6401,77.234817
936,U02311,Jhandewalan,28.6471,77.2039
937,DC4163,Deep Market Ashok Vihar,28.693867,77.173
938,DC3769,Prem Nagar,28.742742,77.146403
939,DC3646,Dwarka Sec 1 Road No. 201,28.5945,77.073517
940,U99956,Lajpat Nagar,28.566667,77.24635
941,DC3937,Bodhik Sampda Bhawan,28.598033,77.025967
942,U02076,Gurudwara Nanak Pyau,28.6908,77.1918
943,U01359,Pittampura AP-Block,28.7034,77.1395
944,DC4455,Pandwala Crossing,28.558136,76.973881
945,U02430,Krishan Menon Marg,28.6069,77.2098
946,U03513,NTPC,28.5074,77.3002
947,DC4263,Shivpuri Colony,28.651867,77.2781
948,U01028,DA Block Hari Nagar,28.6249166666667,77.10705
949,U01640,Zakhira,28.668,77.164283
950,DC3875,Ranhola II,28.654767,77.037983
951,U02472,Indra Vihar,28.70608,77.21208
952,DC3971,Haryana Pottries,28.538183,77.0352
953,U01697,Inderlok,28.6714,77.1672
954,U00858,Sunder Vihar,28.6635,77.0918
955,DC4011,Ujwa Gaon,28.568767,76.906767
956,U03151,Ashram Chowk,28.571617,77.259167
957,U02681,Mori Gate Terminal,28.666517,77.225883
958,U03754,J  and  K Pocket Dilshad Garden,28.6797,77.3247
959,DC4226,Suraj Mal Vihar,28.661333,77.303717
960,U02364,Panchkuian Road,28.6402,77.2067
961,U03649,Nand Nagari E-Block,28.693817,77.3139
962,U02359,NDPO,28.6235,77.2065
963,U00324,Kanjhawala Village,28.734026,77.004905
964,U00652,Dwarka Crossing/ Dwarka Sec 1,28.594483,77.073583
965,DC4203,Delhi Sachivalaya (Raj Ghat Power House),28.637717,77.252683
966,U02584,Indian Oil Bhawan,28.6286,77.2193
967,U00380,Mundka School,28.682717,77.023883
968,U02028,Karol Bagh Metro Station,28.643911,77.188747
969,U99773,Mundhela Crossing,28.59765,76.895133
970,DC4034,Lal Bahadur Shashtri Hospital,28.617317,77.3098
971,DC4157,Chanakya Bhawan,28.58385,77.192083
972,U00461,DSIDC Bawana/ Dhakewala,28.780733,77.043767
973,U03343,Jharkhandi,28.6678,77.282
974,U01261,Punjabi Bagh Club,28.663517,77.131133
975,U03198,Seelam Pur Metro Station,28.67051,77.265754
976,U00165,Tikari Village,28.6875,76.9708
978,U01053,DDU Hospital,28.628,77.1107
979,U02215,CV Raman ITI,28.7208333333333,77.20005
981,DC3706,CRPF Camp / Crown Plaza,28.527783,77.2722
982,U03107,Tara Apartment,28.524,77.256
983,DC3600,Jahangir Puri Metro Station,28.7273,77.161583
984,U02237BJP,Budha Jayanti Park,28.615317,77.175317
985,DC4615,ESI Hospital,28.726417,77.126433
986,DC3623,Millenium Cluster Depot,28.6073,77.252597
987,DC4117,Bank Enclave,28.638617,77.269717
988,U02566,Anandlok,28.5582,77.2184
989,DC4309,Kapil Vihar,28.699602,77.134723
990,U02729,Vocational College,28.5322,77.2278
991,DC4595,Munirka Family Planning,28.556883,77.174217
992,U00527BPC,IOC Dwarka Road,28.5445,77.0648
993,U00881,Peera Garhi Metro Station,28.68,77.0929
995,U01005,Rithala School,28.7150833333333,77.1039
996,U03156,Ram Puri Gali No 13,28.5346,77.2602
997,U00968,G Block Hari Nagar,28.628,77.100233
998,U00561,Uttam Nagar,28.623017,77.06031
999,U00546,Rajiv Nagar,28.724767,77.058683
1000,U02666,Andrews Ganj Shiv Mandir / Ansal Plaza,28.56545,77.2245
1001,U01192,Rohini Sec 7 and 8 Crossing,28.708133,77.125317
1002,DC4764,Baba Haridass Gitanjali Enclave,28.666442,76.954497
1003,U02838,National Stadium,28.6136,77.2347
1004,U99918,E.S.I. Hospital,28.515967,77.28055
1005,U01900,ISTM,28.552767,77.181
1006,U99890,Telephone Exchange,28.675817,77.309217
1007,DC4372,Ranhola Extension,28.657889,77.043025
1008,U03138,Nizamuddin Road Bridge,28.599043,77.257822
1009,U02655,I P College,28.679633,77.223967
1010,DC3537,Om Vihar,28.621,77.052203
1011,U01094,Engg College Shahbad,28.745317,77.116433
1012,DC3729,Pusta No 3 Sonia Vihar,28.725583,77.2448
1013,U02164,Chetan Bihari Mandir Sant Nagar,28.7447,77.198
1014,U02594,Banarsi Daas Estate Timarpur,28.69714,77.220359
1015,DC0139,Bank,28.52585,77.273517
1016,U02625,Vigyan Bhawan,28.610217,77.22165
1017,U02760,Dayal Singh College,28.592183,77.228983
1018,U99957A,Jal Vihar Terminal,28.578443,77.245874
1019,DC4223,Mukundpur (Changeover Point),28.72506,77.18286
1020,DC3563,Nangli Sakrawati Crossing,28.616417,77.007333
1021,DC3540,Mohan Garden,28.62012,77.0401
1022,U03434,Surajkund Crossing,28.5015,77.2903
1023,DC4200,Princess Park/ Airforce Noval Office Enclave,28.587688,77.066452
1024,U01544,Swatantra Bharat Mills,28.663528,77.155197
1025,U02705,Nehru Vihar Crossing,28.709067,77.226233
1026,U99750,PS Ranhola,28.653399,77.03552
1027,U00191,Nazafgarh Terminal,28.61465,76.9779
1028,U00079,Mitraon School,28.6069,76.9394
1029,U01465,Bentex,28.6442,77.1477
1030,DC4492,Jharoda Kalan,28.655132,76.949972
1031,U03661,Gagan Cinema,28.6957,77.3153
1032,U01478,Britannia,28.6849,77.1492
1033,DC4054,Krishna Marg Kardam Puri,28.696833,77.281817
1034,U01753,Wazir Pur JJ Colony,28.6821,77.170133
1035,DC3663,Chhawni Hospital,28.599133,77.125683
1036,DC4538,Primary School,28.846947,77.088336
1037,DC3997,Rohini Sec 22 Terminal,28.717833,77.063783
1038,DC3931,Sector 17/18 More Dwarka,28.59345,77.033267
1039,U03541,Ashirwad Apartment,28.634483,77.301867
1040,U02287,Saket A Block (Malviya Nagar Metro Station),28.528,77.205
1041,U01234,Kabul Line,28.5978,77.1287
1042,U00588,Uttam Nagar Terminal,28.625329,77.066948
1043,DC3812,Rohini Sec 16 Crossing,28.735533,77.1145
1044,DC4618,Rohini Sec 17/16,28.738683,77.117333
1045,U00284,Jhatikara Xing,28.5845,76.9956
1046,U00465,Rama Vihar,28.728583,77.045817
1047,U02832,Mandi House,28.625767,77.234333
1048,U02949,Kailash Colony,28.554483,77.2432
1049,U01036,Rithala Metro Station,28.7198,77.1087
1050,U01014MPS,Mangolpur School,28.694767,77.106433
1051,U01187,Rajdhani College / Raja Garden,28.656033,77.125833
1052,U00779,Mangla Puri Terminal,28.5899833333333,77.0870166666667
1053,U02454,Khel Gaon / Siri Fort Road,28.5507,77.210817
1054,DC3689,Civil Line Metro Station,28.676717,77.225033
1055,U01920,Mukund Pur Crossing,28.73215,77.182433
1056,U02788,Andrews Ganj,28.565967,77.2306
1057,U02406,Ice Factory (Rani Jhansi Road),28.667237,77.209039
1058,DC4326,Goyla Village,28.587602,77.008644
1059,U01479,Libaspur GT Road,28.752483,77.14945
1060,DC4469,Mundhela School II,28.614198,76.895717
1061,U03773,New Seema Puri Depot Cluster,28.684864,77.331577
1062,U02325,Maharishi Balmiki,28.7051,77.204933
1063,U02131,Nauroji Nagar,28.569294,77.195057
1064,U99871,Tughlaq Crescent,28.5949,77.212
1065,U03607,Jagriti Enclave,28.6534,77.3088
1066,U01348,Payal Cinema,28.6314,77.1384
1067,U99632,Agar Nagar,28.703277,77.043984
1068,DC4412,KharKhari Jatmal,28.582264,76.958092
1069,U02660,Minto Road Terminal,28.639324,77.223869
1070,DC0043,Sec-24 Rohini,28.7283,77.0926
1072,U01060,Puspanjali Enclave,28.696267,77.1112
1073,DC0020,Saleemgarh Road,28.6502,77.2524
1074,U00609,Budhela Village / C Block Vikas Puri,28.6354,77.070533
1075,U00961,Mangolpur Kalan Village,28.6957,77.1012
1076,U00809,Palam Colony,28.581483,77.096017
1077,U02113,Pusa Road Petrol Pump Sadhu Vaswani Marg,28.6448,77.1934
1078,U00574,Kirari Railway Xing,28.686399,77.062712
1079,U03428,Hans Apartment,28.658,77.2899
1080,U02118,Talkatora Stadium Garden,28.621483,77.194617
1081,DC0056,Mukharji Nagar Tank,28.7105,77.2112
1082,DC3915,Maya Enclave,28.616667,77.110233
1083,U99849,Kaka Nagar,28.60575,77.2371
1084,U02104,Vinay Marg,28.5862,77.1934
1085,U99803A,Kirodi Mal College,28.6833333333333,77.2085
1086,U01897,R K Puram Sec-4,28.5618,77.1807
1087,U02593,Mall Road,28.693917,77.219883
1088,DC0072,Nirman Bhawan,28.6105,77.215867
1089,U99931A,Lodhi Hotel,28.591317,77.239667
1090,U00672,Vijay Enclave,28.6062,77.0755
1091,U00799,Hanuman Mandir Rohini Sec 24,28.722667,77.08745
1092,DC4389,TilangPur Kotla,28.651233,77.0302
1093,U01536,Masood Pur Village,28.525433,77.154483
1094,DC0003,Rohini West Metro Station,28.7154,77.1147
1095,U00748,T Block Magol Puri,28.689348,77.082071
1096,U01635,Dhaula Kuan,28.592721,77.163492
1097,DC4429,Ghuman Hera DTC Depot,28.534088,76.915012
1098,U00657,Rohini Sec 20/21 More,28.715887,77.074077
1099,U02429,Bhavishya Nidhi Enclave,28.5428,77.209567
1100,U02421,Sewa Kutir,28.70265,77.2098166666667
1101,U02843,MCKR Hospital,28.569167,77.23525
1102,NS0199,Puspanjali G Block,28.5427,77.072883
1103,DC4303,Lok Vihar,28.612699,77.135213
1104,U00398,Mundka Village Metro Station,28.682252,77.029944
1105,U00589,Dwarka Sec 2-6,28.597367,77.064883
1106,U02837,Kouria Bridge,28.6603,77.2346
1107,U03745,Kondali Old,28.613051,77.322989
1108,DC4452,Rewla Tajpur Crossing,28.572245,76.980779
1109,DC4515,Brar Square,28.6073263152858,77.1409517654622
1110,DC1102,Okhla Depot IV CWS II,28.51835,77.284767
1111,U00377,Kakrola Bridge,28.619758,77.024856
1112,DC0097,Kushak Nallah Depot,28.57985,77.22495
1113,U02771,ISBT Kashmere Gate,28.6667333333333,77.2294
1114,U03102,B-Block East of Kailash,28.562167,77.255617
1115,U99761A,Bhajan Pura,28.70355,77.263367
1116,U01711,Jahangirpuri K Block,28.7304,77.168
1117,DC3974,Hargovind Enclave,28.645917,77.30105
1118,U01535,Swatantra Bharat Mills,28.663167,77.154733
1119,U99853A,Shaheen Bagh Thokar No 5,28.552517,77.29995
1120,U01263,Shivaji Park,28.674683,77.131433
1121,DC4366,Qamruddin Nagar,28.675067,77.061483
1122,U03282,Holy Family Hospital,28.56095,77.275467
1123,U00351,Baprola Village,28.640823,77.011757
1124,U03148S,Ashram Chowk,28.571233,77.259017
1125,U00252,Nirmal Vihar,28.62545,76.992433
1126,DC3872,Kotla Vihar Phase II,28.648417,77.025167
1127,DC4014,Jhuljhuli Crossing,28.531617,76.907067
1128,DC4037,Radha Swami Satsang,28.620517,77.307533
1129,DC4183,Dwarka Sec-21 Metro Station,28.5516666666667,77.0566833333333
1130,U02577,New Delhi Railway Station Gate 1,28.641317,77.21865
1131,U00276,Jhatikara Crossing,28.585867,76.994978
1132,U99789,Rani Khera Bus Stand,28.7046,77.0278
1133,DC3749,Buddh vihar,28.70415,77.087483
1134,DC3991,Mauj Pur,28.689372,77.278191
1135,U03203,Kalkaji Depot,28.539467,77.266233
1136,DC3703,Vikas Puri Crossing,28.6295,77.06885
1137,U01602,Outer Ring Road Makbara Chowk,28.736833,77.159933
1138,U02246,Clock Tower,28.6774,77.201633
1139,U02340,Maurice Nagar II,28.68655,77.2057333333333
1140,U00835,Ganesh Nagar Check Post,28.634383,77.0893
1141,U99860,R R Line,28.60415,77.155333
1142,U01815,Bapu Dham,28.5992,77.1753
1143,U00741,C-2 Janak Puri,28.616099,77.081447
1144,U99792Z,Karala Xing,28.731415,77.032086
1146,DC4283,DDA Booster Pump Station,28.57135,77.052876
1147,DC4781,Sarvodya School Daulat Pur,28.543817,76.963483
1148,U02990,Shanti Vana,28.6497,77.2458
1149,U02158,Nirankari Sarovar Burari Xing,28.7271,77.1978
1150,U03099S,Khajuri,28.70465,77.2571
1151,DC3626,Suraj Vihar,28.613433,77.03315
1152,U02237BP,Budha Jayanti Park,28.61538,77.17517
1153,U00603,Uttam Nagar / A1 Janak Puri,28.624233,77.067867
1154,DC4306,Harsh Vihar,28.694734,77.134755
1155,DC4475,Keshav Nagar Darshan Dham,28.784103,77.180028
1156,U01661,Kishan Garh,28.514417,77.164167
1157,U03764,Mayur Vihar Phase III Crossing,28.6023484928639,77.32566419165
1158,DC0026,JJ Colony Wazir Pur,28.679033,77.166517
1159,U00700,Mata Chandan Devi Hospital,28.618876,77.078653
1160,U02578,Windsor Place,28.618,77.2189
1161,DC3726,Pusta No 1 Sonia Vihar,28.718883,77.24335
1162,U00964,Rohini  Sec-1 Avantika,28.703,77.0998
1164,DC4704,E Block Greater Kailash- II,28.537437,77.240908
1165,U02460,Begumpur,28.536667,77.209583
1166,U00933,Tilak Nagar,28.6352,77.0971
1167,U01531,Ram Pura,28.67195,77.15395
1168,DC4512,Satya Puram Jharoda,28.663192,76.945139
1169,U03035,South Park Appartments CR Park,28.5411,77.24915
1170,U02908,Pant Nagar,28.583567,77.2406
1171,U00359,Dariyapur Kalan School,28.8089333333333,77.0148666666667
1172,U03077,Nehru Nagar,28.568283,77.253917
1173,U01267,Madhuban Chowk (Outer Ring Road),28.7054,77.132
1174,U00003,S.K.V.Dhansa,28.5576,76.8622
1175,U02889,Tilak Bridge,28.6241,77.2394
1176,U03746,Shahdra Border,28.6758,77.3231
1177,U03391,Mother Dairy,28.619267,77.286067
1178,U02693,Ajmeri Gate,28.643383,77.225733
1179,U01245,Punjabi Bagh Club,28.663217,77.130183
1180,U99975,Vasant Lok,28.560433,77.164383
1181,U01915,Mehrauli Terminal,28.5217372755846,77.1826898067577
1182,U01126,Deepali Chowk,28.69835,77.1195333333333
1183,U02116,Green Field School,28.56604,77.19428
1184,U03750,Shahadara Border Road No 62,28.677683,77.323483
1185,U00745,Mangolpuri S Block,28.6927,77.082
1186,U02632,J and K House,28.6019,77.2226
1187,DC4767,Tikri Kalan Village,28.68246,76.964704
1188,DC4552,Kurani More,28.840835,77.090527
1189,U03326,Harkesh Nagar,28.543933,77.279483
1190,U02770,Sujan Singh Park,28.601017,77.22945
1191,DC4575,East Vinod Nagar Depot,28.620318,77.300148
1192,DC4698,Ladpur School,28.739239,76.998354
1193,U03437,P S Pandav Nagar,28.6142,77.2911
1194,U00891,Peera Garhi Depot,28.675,77.094
1195,U01119,DDA Flats Hari Nagar,28.6308,77.1193
1196,DC4681,Jatt Khor Crossing,28.7881,76.9625
1197,U01069,Zunk Market,28.618433,77.11235
1198,DC3666,Chhawani Hospital,28.59995,77.1249
1199,DC4289,SDM Office Bank Enclave,28.643403,77.270221
1200,U01510F,Air Force HQ / Subroto Park,28.584133,77.146033
1201,U02671,Lodhi Colony,28.5846,77.2246
1202,U01730,R K Puram Sec-5,28.56055,77.17025
1203,DC4097,Vivek Vihar ITI,28.6707,77.315833
1204,U01304,Punjabi Bagh Terminal,28.6673,77.135
1205,U00792,Dabri Xing,28.61195,77.086033
1206,U02644,Lodhi Road Crossing,28.592,77.2237
1207,U02718,Vocational College,28.532283,77.22695
1208,DC4243,Teen Murti,28.606083,77.198917
1209,U00745MP,S Block Mangol Puri,28.692667,77.082583
1211,U03202,Bala Sahib Gurudwara,28.5821,77.26555
1212,U01163,Supply Depot,28.606633,77.123233
1213,U02255,Guru Govind Singh Crossing (Faiz Road),28.653054,77.202311
1214,U03274,CRRI,28.550467,77.27485
1215,U99804,Ice Factory,28.6663,77.2087
1217,U02125,Burari Garhi,28.7578,77.1952
1218,DC3835,Karol Bagh Gurgaon Stand,28.64376,77.19701
1219,U03215,Yamuna Vihar Block C-1,28.7033,77.2676
1220,U02744,JLN Marg,28.64205,77.228333
1221,U99974,PS Tuglak Road,28.599867,77.211267
1222,DC3643,Prehlad Pur,28.579517,77.101617
1223,U03527,Badarpur Village,28.502033,77.300367
1224,DC4329,St Thomas School Goyla Vihar,28.581902,77.015056
1225,U01494,Bentax,28.644717,77.147667
1226,U03458,MIG Flates Loni Road,28.70065,77.295217
1227,DC4266,East Guru Angad Nagar,28.641233,77.282717
1228,U01033,Rithala Metro Station,28.7196,77.1084
1229,DC3772,Prem Nagar,28.742883,77.146467
1230,U00852,Janak Cinema,28.610881,77.092159
1231,U02342,Kendriya Terminal,28.6174,77.203467
1232,DC4658,Shaheed Bhagat Singh Colony Karawal Nagar,28.732967,77.260083
1233,DC4160,Deep Market Ashok Vihar,28.69345,77.173233
1234,U03540,Neethi Apartment,28.6314,77.302
1235,U99983,Rajendra Place / Karol Bagh Telephone Exchange,28.642667,77.180083
1236,U00392BM,Bamnoli Crossing,28.539267,77.029983
1237,U02386,Thana Sabzi Mandi- Ice Factory,28.66925,77.207667
1238,DC3686,Shaheen Bagh Thokar No. 6,28.55137,77.300588
1239,U99828,Samalka Xing,28.5378,77.0927
1240,DC3580,New Usman Pur Pusta No-1,28.679967,77.256017
1241,DC4074,GTB Hospital Crossing,28.690067,77.307817
1242,U01303,Naraina Vihar,28.627183,77.13375
1243,U02081,Africa Avenue,28.56965,77.19145
1244,U02187,RML Hospital,28.62505,77.198717
1245,U02405,Chitra Gupta Road,28.6411,77.2085
1246,U03581,Trilokpuri 13-Block,28.6126,77.3062
1247,U01906,Moti Bagh 1,28.5812,77.1815
1248,U01886,Telephone Exchange Karol Bagh,28.642914,77.181798
1249,U03273,CRRI,28.551067,77.27395
1250,U03296,Welcome Colony Metro Station,28.672,77.275
1251,U02724,Defence Colony,28.57435,77.228817
1252,U02079,Akbar Bhawan,28.586,77.1911
1253,U01510,RR Hospital / Maharana Pratap Chowk,28.59015,77.15675
1254,U00691,M Block Vikaspuri,28.6386,77.077717
1255,U01550,Jai Mata Market Tri Nagar Terminal,28.681367,77.155417
1256,U00698,C-1 Janakpuri,28.6174,77.0785
1257,DC3855,Deep Vihar,28.7349,77.0871333333333
1258,U01121,Madipur JJ Colony Metro Station,28.676383,77.1205
1259,U02920,Amir Khusro Park / Oberoi Hotel,28.596267,77.240433
1260,DC3809,Madanpur Khadar,28.532333,77.296417
1261,DC0075,Chirag Dilli,28.542,77.2308
1262,DC4346,Dwarka Sec-19 Modern School,28.578591,77.054908
1263,DC4684,Jatt Khor Village,28.789367,76.975567
1264,DC4246,Sena Bhawan,28.6082,77.206667
1265,DC4392,Ranhola II,28.65466,77.038019
1266,DC0006,Rithala Crossing,28.7119,77.1078
1267,DC4638,Choudhary Mohalla,28.577346,76.865723
1268,DC4449,Rishal Vihar,28.553603,76.992783
1269,U03492,Meet Nagar/Ashok Nager,28.7001,77.297483
1270,U02522,Palika Kendra,28.62875,77.216567
1271,U02968,Pumposh Enclave,28.5435,77.2441
1272,U02316,Bara Hindu Rao,28.6616,77.2048
1273,DC3912,Sarai Rohilla Flyover,28.667133,77.182067
1274,U03723,Kalyan Puri Xing,28.6144,77.3214
1275,U01942,Amrit Vihar Colony,28.7645,77.1838
1276,U00249,BDO Office Roshan Pura,28.600501,76.988597
1277,U02239,Raj Nagar,28.5701,77.2011
1278,U00419,Mundka Village Xing,28.6825,77.035733
1279,U99819Z,Mubarakpur Xing,28.712583,77.028028
1280,U00976,Sant Pura,28.638567,77.100583
1281,U00922,Shahbad Dairy,28.7465,77.0963
1282,U01722A,Shanti Niketan / RK Puram Sec 9,28.5747824927672,77.1687699879572
1283,U03217,C-Lal Chowk,28.5345,77.2683
1284,DC3832,DSIDC Bawana/ Dhakewala,28.78585,77.0414
1285,DC4761,Jharoda Nala Crossing,28.662386,76.953579
1286,U01762,Janak Vihar,28.6312,77.1712
1287,DC4369,ShivRam Park,28.667717,77.055233
1288,U03063,Sri Niwaspuri / PG DAV College Lajpat Nagar,28.56675,77.253117
1289,DC4220,Shalimar Bagh Desu Colony,28.718695,77.158424
1290,DC4661,Titiksha Public School,28.72505,77.259117
1291,DC4120,Kali Bari Marg,28.630717,77.197933
1292,U02755,Defence Colony,28.574267,77.228733
1293,DC3683,Nai Basti,28.561467,77.294667
1294,U00067,Surehra Crossing,28.60418,76.932332
1295,U02479,Tees Hazari Animal Hospital Mori Gate,28.6644,77.215233
1296,U02235,Roshnara Bagh,28.6717,77.2007
1297,U01517,Masood Pur Village,28.52535,77.154683
1298,DC4558,DJB,28.815305,77.057968
1299,U02512,Tees Hazari Court,28.6668,77.2188
1300,U00544,Rajeev Nagar,28.7247333333333,77.05875
1301,U01350,Pitampura CD Block (Aggrasen model School),28.7058,77.1386
1303,DC3543,Arjun Park,28.618083,77.013083
1304,U02306BM,Balmiki Mandir,28.639867,77.2043
1305,DC4057,Gokul Puri,28.702083,77.2828
1306,U03249,Sukhdev Vihar Depot,28.554867,77.27125
1307,DC4598,FAI,28.543617,77.179833
1308,DC3606,Libas Pur GT Road,28.7501,77.150733
1309,U01459,Power House,28.672702,77.147024
1310,DC3994,Zafrabad,28.676269,77.271694
1311,U02262,Kamla Nagar/ Roop Nagar,28.68405,77.202317
1312,U02491,Mukharji Nagar Xing,28.7093,77.2137
1313,U01613,Shalimar Bagh Richi Rich,28.7017833333333,77.1643833333333
1314,U02338,CV Raman ITI,28.726683,77.2048
1315,U00363,BakkarWala Crossing,28.643213,77.01611
1316,U01296,Shastri Bazar,28.5966,77.1347
1317,DC4535,Maharaja Agrassen School,28.835983,77.079317
1318,U03289,MB Road (TBag),28.505533,77.276483
1319,DC4143,Cargo / Express Terminal Gate,28.555807,77.09753
1320,U02817,Central School,28.562817,77.2328
1321,DC0109,Preet Vihar,28.639333,77.292417
1322,DC4472,Mundhela Khurd Village,28.617265,76.893125
1323,U01225,SPM College,28.675417,77.128033
1324,U00593,Lokesh Cinema Nangloi,28.6822,77.060033
1325,U03180,Kalkaji Mandir,28.55135,77.26385
1326,U00467,DPS Matiyala,28.60465,77.046233
1327,DC4495,S.Sr. Kanya Vidhyalaya,28.64673,76.956049
1328,NS0235,Road no-44 Xing,28.6863,77.1361
1329,DC3934,Dwarka Sec 16C/GGS IP University,28.594917,77.022233
1330,U03505,Chandar Vihar,28.633,77.299
1331,U00321,Sumesh Vihar,28.5579,77.0044
1332,DC4017,Dauralla Border,28.50795,76.897133
1333,U01537,GTK Bypass,28.7385,77.1546
1334,U03676,Gazipur Depot,28.64175,77.316033
1335,U00754,Manohar Nagar,28.6427,77.083
1336,U02438,Shahpur Jat,28.5482,77.21
1338,U01354,Uttri Pitam Pura,28.715117,77.138917
1339,U02395,GTB Nagar / Haqiqat Nagar,28.698283,77.2076
1340,U00757,Kapashera Village,28.5235,77.08325
1341,U03031,Lajpat Nagar 1 Ring Road,28.5655,77.24548
1342,U00623,Tilak Pul,28.6215,77.07
1343,DC4323,Shyam Vihar,28.591481,77.000564
1344,U01935,RK Puram Crossing,28.5682,77.1836
1345,DC4770,Tikri Border,28.687054,76.965189
1346,U00320,Sumesh Vihar,28.5579,77.0043
1347,U01249,Rohini Sec 18 Bus Terminal,28.744717,77.1301
1348,U01202,Rohini East,28.7074,77.1261
1349,DC3592,Shastri Park Pusta Road,28.674017,77.2563
1350,U01667,Ashok Vihar Crossing,28.701433,77.164083
1351,NS0189,Mahipal Pur Village,28.545667,77.123083
1352,DC0060,Ekta Garden- Harijan Basti,28.7563,77.1971
1354,DC4624,Rohini Sec-11 (Aggarwal Sabha),28.734383,77.115333
1355,DC0081,North Paint Nursing Home,28.5427,77.2176
1356,DC4747,Taj Pur Village,28.576279,77.008851
1357,U00938J5A,C-5A Janakpuri,28.6155,77.097
1358,U02775,Sewa Nagar Flyover,28.57875,77.229533
1359,U01426,DAV School,28.6998,77.1438
1360,U00986,Hari Nagar Depot,28.6245,77.1018
1361,U01848,R K Puram Sec-1,28.5647,77.1783
1362,U02121,Tibiya College,28.6574,77.1947
1363,U00965,Sagarpur / Vashisht Park,28.6091,77.0996
1364,U00896,Mangol Pur Khurd,28.699967,77.094383
1365,U00759,Kapashera Village,28.524517,77.0837
1366,U00667,Sultanpuri Terminal,28.70305,77.075467
1367,U02182,Sant Nagar Main Market,28.7418,77.198
1368,U01325,Naraina Village,28.618133,77.13675
1369,U02163,PTS,28.531233,77.196833
1370,DC3861,Mubarakpur School,28.71205,77.033933
1371,DC4332,Nehru Bus Stand Goyla Dairy,28.580346,77.019327
1372,U03190,Laghu Udyog Sansthan (ModiMill),28.5565,77.2648
1373,U01929,Bara Bagh,28.7017,77.1831
1374,DC4524,Panchayat Ghar,28.797927,77.031801
1375,U03609S,Parivar Apartment,28.62675,77.30935
1376,DC4232,Vivekanand Mahila College,28.666833,77.31515
1377,DC3669,Khel Gaon CWG Village,28.606621,77.274337
1378,DC4255,Nangal Raya DDA Market,28.609683,77.1068
1379,U03609,Parivar Apartment,28.626417,77.3091
1380,U03132,DDA Flats Kalkaji,28.5283,77.2576
1381,DC4063,Virender Nagar/ Dilli Haat,28.623584,77.09761
1382,DC3738,Annpurna Mandir,28.74245,77.246567
1383,U00224,PS Najafgarh,28.609583,76.98295
1384,U02285,Videocon Tower,28.6441,77.2036
1385,U01018,Multan Nagar,28.678083,77.105467
1387,DC4126,Bank Enclave,28.639067,77.2693
1388,U01554,Shadipur Colony,28.6517,77.1565
1389,DC4026,Samaspur Khalsa,28.578549,76.909937
1390,U02293,Kendriya Terminal,28.6173,77.2035
1391,U02946,Metro Train Depot,28.673867,77.241633
1392,U03089,Nehru Place Terminal,28.5481,77.2552
1393,U00605,Uttam Nagar Terminal,28.626136,77.06845
1394,U01776,Moti Bagh Gurudawara Nanakpura,28.584933,77.172167
1395,U03075,Nizamuddin Road Bridge,28.6034,77.254233
1396,DC3941,Mayur Vihar Phase III Terminal / Paper Market,28.618229,77.341004
1397,U01780,New Sabzi Mandi,28.7139,77.1725
1398,U03416,Nirman Vihar,28.636783,77.287683
1399,U02899,Zoo,28.6084,77.23995
1400,U02469,Tughlaq Crescent,28.5942,77.212
1401,U99609,Karala School,28.7308,77.0398
1402,U99949T,Keshav Mahavidhyalaya,28.68715,77.12005
1403,U02937,Delhi Gate,28.63735,77.241217
1404,U03154,Govindpuri Extn Gali No. 16,28.5329,77.2596
1405,U00427,Bawana School,28.796201,77.035577
1407,U01051,Zunk Market,28.6171,77.1108
1409,U00315,Harewali Xing,28.818533,77.002817
1410,U02575,National Archives,28.6156,77.2188
1411,U03627,Nand Nagari Terminal,28.691383,77.310483
1412,U03187,Bhajanpura,28.703351,77.263706
1413,DC3957,Rani Bagh Railway Colony,28.68395,77.12885
1415,DC4149,Centaur Hotel / Nangal Dairy,28.548933,77.104717
1416,U01902,Shastri Nagar Metro Station,28.670231,77.181136
1417,U01820,Azadpur,28.7106,77.1756
1418,DC4541,Safiyabad Xing,28.855266,77.08973
1419,U03192,Tughlaqabad Village,28.509283,77.265
1420,U02135,Ashoka Hotel,28.5944,77.196
1421,U02362,Green Park,28.5572,77.2068
1422,DC3529,Kair Village,28.623067,76.9206
1423,U01310,Chandra Lok,28.6892,77.1356
1424,U00275,Ghevra Crossing Rohtak Road,28.68545,76.99485
1426,DC0009,Avantika Crossing,28.6989,77.0968
1427,U01270,Madhuban Chowk (Outer Ring Road),28.7048,77.1322
1428,U03780,New Kondali A1 Crossing,28.602967,77.329133
1429,U02824,Jaipur House,28.6095,77.2332
1430,U01649,Swami Malai Mandir,28.567817,77.16495
1431,U02488,Sucheta Kriplani Hospital,28.63635,77.21395
1432,U01239,Kabul Line,28.5977,77.1292
1433,DC4478,Bharthal Village (Shyam Mandir),28.543017,77.043635
1434,DC3815,Siras Pur Crossing,28.7637,77.145667
1435,DC4501,Surakh Pur Crossing,28.615549,76.976354
1436,U02696,Bhartiya Vidya Bhawan,28.6219,77.2258
1437,U02613,Khyber Pass,28.6902,77.2214
1438,U03473,Pocket-5 Mayur Vihar Ph-1,28.6132,77.2955
1439,DC4670,Ladpur Village,28.73949,76.997517
1440,U01727,Inderlok Metro Station,28.673633,77.168983
1441,DC3980,Mauj Pur,28.6891,77.27765
1442,U02565,Peeli Kothi,28.6624,77.2181
1443,U01486,Netaji Subhash Palace (Wazirpur Depot) Road No 41,28.69415,77.151033
1444,U03795,Dilshad Garden Depot Cluster,28.685558,77.331408
1447,DC4607,FAI,28.543633,77.1801
1448,U01968,Government Quarter Sarai Rohila,28.6613,77.184633
1449,U00722,Kangra Niketan,28.639133,77.081983
1450,DC4564,Primary School,28.797786,77.033746
1451,DC0029,Nityanand Marg,28.66835,77.225
1452,U00825,C2B Janakpuri,28.621233,77.088917
1453,U00010,Dhansa Village,28.557767,76.868767
1454,DC4415,Hasanpur Village,28.556475,76.936796
1455,U00420,Bawana Village,28.80175,77.039147
1456,DC4438,Shiv Enclave Dichau,28.624102,76.984675
1457,DC4461,Jhatikra Crossing Pandwala Road,28.584748,76.995233
1458,U00309,Harewali Crossing,28.81855,77.003033
1459,DC4484,Surakh Pur Crossing,28.61549,76.976275
1460,U02294,Nirankari Colony,28.7148,77.204
1461,U02761,Ambedkar Nagar Depot,28.515267,77.2284
1462,U01335,Kirti Nagar,28.654783,77.136667
1463,U01912,Shastri Nagar Metro Station,28.669997,77.181336
1464,U01627,B3 Keshav Puram,28.6861,77.1629
1465,U03495,KarKarDooma Crossing,28.643217,77.297317
1466,U02831,Mandi House,28.625567,77.233933
1468,U03494,Karkardooma Crossing,28.692917,77.297183
1469,U01340,Rang Puri Pahari,28.537983,77.137
1470,U02220,Faiz Road,28.6495,77.1998
1471,U01071,Shiv Murti,28.535683,77.11255
1472,U02542,Lucknow Road,28.695844,77.216119
1473,U99895,Shivaji Stadium Terminal,28.632583,77.215467
1474,DC0051,ISBT Ring Road,28.6717,77.2315
1475,DC4192,Shanti Niketan,28.572969,77.163914
1476,DC3944,Kerala School,28.616,77.34095
1477,DC4043,Dharamshila Hospital,28.602167,77.313567
1478,U00301,Hiran Kudna Crossing,28.684917,77.001267
1479,DC4584,Dwarka Sec-23B Crossing,28.564352,77.039366
1480,U02301,Nirankari Colony,28.714883,77.2041
1481,DC3655,Mahindra Park,28.721715,77.166162
1483,U00510,Nilothi Crossing,28.664533,77.052633
1484,DC3901,Bawana,28.800283,77.035383
1485,DC4146,IGI Airport Terminal 2 (Air India Office),28.556837,77.09186
1486,U03464,Shashi Garden Xing,28.6136,77.2941
1487,U02845,Bapa Nagar,28.60635,77.234917
1488,U02133,Gur Mandi,28.6849666666667,77.1959333333333
1490,U01058,Beriwala Bagh,28.631183,77.112217
1491,U02436,Sunehri Masjid/ G Block,28.6094,77.2097
1492,U02567,South Extn Kotla Petrol Pump,28.568767,77.216767
1493,U02676,Swami Nagar,28.54215,77.224683
1494,U03159,SNPD,28.560733,77.260617
1495,U00585,Dwarka Sec 2-6,28.597267,77.0654
1496,U03165,Govindpuri,28.538,77.2615
1497,U00830,Udyog Nagar,28.67995,77.0895
1498,U00763,Krishna Vihar,28.706667,77.084217
1499,U02614,Asian Market,28.5166,77.2214
1501,DC4312,Nirmal Vihar,28.625333,76.992517
1502,DC3775,Jhilmil Crossing / Dilshad Garden GT Road,28.6764,77.318217
1503,DC4020,Dauralla Village,28.510917,76.8954
1504,NS0489,Vishwa Vidyalaya Metro Station,28.695084,77.215315
1505,DC4561,Dsidc Bawana,28.803268,77.042608
1506,U03305,C 4 Yamuna Vihar,28.702233,77.27835
1507,DC3632,Prehlad Pur,28.579683,77.101783
1508,U00306,AirForce Station (BaniCamp),28.63355,77.00245
1509,DC4169,Dwarka Sec 23 / Pochan Pur Village,28.565077,77.049914
1510,U00950,Fateh Nagar,28.631133,77.098567
1511,U02950,Lajpat Nagar Ring Road,28.5655,77.24565
1512,U03706,Kalyan Puri Terminal,28.615167,77.319267
1513,DC4272,Shivpuri Colony,28.651117,77.27835
1514,U03392,Swaran Cinema,28.662717,77.2863
1515,U00864,Janakpuri B-2,28.6263,77.0921
1516,DC4295,Rajdhani Enclave / Mahindra Park,28.683242,77.136765
1517,U02756,Dayal Singh College,28.592467,77.228717
1518,NS0392,Ridge Road,28.632626,77.188922
1519,NS0188,Mahipalpur Village (NH-8),28.5468,77.1237
1520,DC4249,China - Norve Embasy,28.600733,77.192517
1521,U04000A,Holy Family Hospital,28.5608,77.2727
1522,U01629,B-3 Keshav Puram,28.685683,77.163383
1523,DC4773,Jhatikra Village,28.522174,76.965854
1524,U99813,Rani Khera,28.6992,77.0276
1525,DC4750,Chhawla Village,28.565867,77.003446
1526,U00266,Goela Dairy Crossing,28.591084,76.9931
1527,U02276,PS Mandir Marg,28.637583,77.202967
1528,U02137,IIT Gate,28.546167,77.195583
1529,U00369,Bamnoli Power Station,28.542017,77.018533
1530,U02489,Dispensary Paharganj,28.6449,77.2135
1531,U03576,Saini Enclave,28.6508,77.3056
1532,U02890,Tilak Bridge,28.6237,77.2393
1533,DC0012,Kanjhawala Chowk,28.73725,77.007217
1534,U00983,Rithala Village,28.717113,77.101457
1535,DC4727,Radha Swami Satsang Sec-23 Dwarka,28.566795,77.049037
1536,U03511,Power House,28.5073,77.3
1537,DC4335,Jhankar Crossing,28.579252,77.024293
1538,U01767,Vasant Vihar Depot,28.558917,77.172067
1539,U01589,Shani Mandir / Vasant Village,28.57572,77.159058
1540,U01885,RK Puram Sec-1,28.5642,77.1802
1541,DC3758,Indian Oil Corporation,28.686267,76.986533
1542,U01796,East Patel Nagar,28.6423,77.1733
1543,U03582,Nand Nagari Depot,28.698933,77.306333
1544,U01567,Vasant Kunj sec-B1,28.522483,77.1575
1545,DC4687,Punjab Khor Village,28.77775,76.961383
1546,DC4664,Bihari Pur Gaon,28.713817,77.2575
1547,DC3649,R R Line,28.5958,77.150933
1548,U99996A,Prashant Vihar F Block,28.718617,77.139083
1549,U00621,Rohini Sec-21,28.7188,77.069767
1550,U03076,Kartar Nagar,28.68945,77.25395
1551,U02739,Old Delhi Railway Station,28.660087,77.227876
1552,U01387,APS Colony/ Jharera Gaon,28.579967,77.144817
1553,DC3884,Dwarka Sec 21 Crossing Bharthal Chowk,28.554375,77.050144
1554,U01522,AIR Station,28.6265,77.1535
1555,U00712,District Centre Nazafgarh Road,28.630417,77.079983
1556,DC4186,Dwarka Sec-21 Crossing,28.551012,77.055873
1557,U01015,Rohini Sec 3/4/5/6 Xing (Vishram Chowk),28.7092,77.1054
1558,DC4209,Wazir Pur Industrial Area/ Ashok Vihar Crossing,28.701876,77.16732
1559,U01969,Gujranwala Town,28.6995,77.1849
1560,U02531,Delhi University,28.6882,77.2148
1561,U03516,Badarpur MB Road,28.4995,77.3005
1562,DC4123,Kali Bari Marg,28.630641,77.198066
1563,DC3735,Pusta No 5 Sonia Vihar,28.734467,77.246683
1564,DC3821,Sarita Vihar D Block / Madanpur Khadar Village,28.532133,77.2964
1565,U03025,IP Depot Metro Station,28.6195,77.249
1566,DC0035,Sunehari Pulla Depot / Jawahar Lal Nehru Stadium Terminal,28.591283,77.2333
1567,U00573,Kirari More,28.68245,77.063967
1568,U00016,Qadipur,28.5781,76.8798
1569,DC4421,Dewta Wala mandir,28.548976,76.930686
1570,U03503,Press Apartment,28.62285,77.2983
1571,U99991,Qutub Minar Metro Sation,28.51415,77.186167
1572,U03295,Laxmi Nagar / Shakarpur Crossing,28.629233,77.27735
1573,U02712,PS Kamla Market,28.643083,77.226
1574,U00261,Tuda Mandi,28.612458,76.99146
1576,U01732,Inderlok Metro Station,28.673217,77.169483
1577,DC4129,Geeta Colony,28.6551,77.273567
1578,U02928,Supreme Court,28.623917,77.24095
1579,U01595,Todapur Village,28.6228,77.1592
1580,U00954,Rajokari Crossing,28.522767,77.098683
1581,U00513,Nilothi Crossing,28.664852,77.053333
1582,U01410,PS Kirti Nagar,28.646473,77.14089
1583,DC3940,Radisson BLU Hotel,28.596183,77.03735
1584,U03633,Yamuna Sports Complex,28.659983,77.311733
1585,DC4252,South Enclave,28.610317,77.199317
1586,U99606,Meera Bagh,28.6588,77.091
1587,U99988,Lodhi Colony,28.514817,77.224533
1588,DC4229,Vivek Vihar Girls School,28.6691,77.318717
1589,DC3983,Chhajupur,28.68955,77.286983
1590,DC3960,Toll Tax Post,28.54325,77.013167
1591,DC4083,Vivek Vihar Terminal,28.668417,77.31425
1592,DC4206,Ashok Vihar B Block,28.695926,77.170655
1594,U03144,DDA Market Kalkaji,28.5319,77.2591
1595,DC3795,Tahir Pur,28.691467,77.324817
1596,DC4398,Narain DharamKanta,28.670883,77.05775
1597,U02074,Model Town II,28.7040333333333,77.1905166666667
1598,U00756,JG 3 Block Vikaspuri,28.647117,77.0804
1599,U03600,GTB Hospital Xing,28.6901,77.3078
1600,U02630,J and K House,28.6012,77.2222
1601,U00195,Tikri Hospital,28.686597,76.978404
1602,U01211,Rajouri Garden Market,28.6457,77.127
1603,U02909,Supreme Court,28.621517,77.240333
1604,U01282,Shankar Vihar / National Highway 8,28.566633,77.13395
1605,U03124,Air Force Station,28.5114,77.256483
1606,U01941,Mukund Pur Chowk,28.7324,77.183583
1607,DC3695,PS Vikas Puri,28.631217,77.068583
1608,U00717,Kangra Niketan,28.6352,77.0805
1609,DC4498,Saraswati Kunj Jharoda,28.630863,76.965522
1610,U02728,Wazirabad Crossing GT Road,28.710499,77.227319
1611,DC4567,Krishna Vihar,28.789662,77.028066
1612,U03713,Ram Prastha Temple,28.6632,77.3202
1613,U00664,Vijay Enclave,28.60635,77.075033
1614,DC0130,Khichdipur,28.6258,77.31205
1615,U01044,Lajwanti Garden (Nangal Rai),28.6129,77.11
1616,DC1311,ESI Hospital,28.51425,77.281333
1617,DC4375,PS Ranhola,28.653517,77.03545
1618,U02704,Bhartiya Vidya Bhawan,28.6213,77.2264
1619,DC3818,Siras Pur Crossing,28.764,77.145633
1620,U01528WD,Wazirpur Depot,28.692033,77.153767
1621,DC3718,Shivaji Stadium,28.631033,77.215867
1622,U02792,Central School,28.5117,77.231867
1623,U00329,Nangli Sakrawati Crossing,28.616344,77.007924
1624,U01499,TV Tower (Power House),28.7,77.1514
1625,U02281,Padmani Enclave,28.5492,77.2034
1626,DC4667,Kanjhawla Chowk,28.737967,77.00695
1627,U03011,Gandhi Darshan,28.636983,77.247267
1628,U01099,Rohini Sec 17/16,28.738767,77.117317
1629,DC3612,Anand Vihar ISBT Main Road,28.64696,77.317879
1630,DC4604,Qutub Hotel,28.5391,77.19
1631,U01550A,Jai Mata Market Tri Nagar Terminal,28.681483,77.155483
1632,DC4627,Dena Apartment,28.724767,77.12925
1633,U00903,C-4H Janakpuri,28.616333,77.09525
1634,U00353,Toll Tax Post,28.543267,77.0127
1635,U02151,IIT Gate,28.546,77.197
1636,U01223,Mahipal Pur Village,28.545867,77.126733
1637,U02605,Asian Market,28.5169,77.2208
1638,U02610,Timarpur,28.7006166666667,77.2212
1639,U99867,E.S.I. Hospital,28.5159,77.2805
1640,DC103,Baba Ramdev Mandir,28.6534166666667,77.1091333333333
1641,U02749,ISBT Maharana Pratap Bus (T),28.669,77.2286
1642,U01877,R K Puram Sec-4,28.563067,77.18
1643,DC0076,Don Basco School,28.527839,77.247072
1644,U01747,Adarsh Nagar Metro Station,28.717467,77.169917
1645,DC4650,Vivek Vihar Ram Mandir,28.66801,77.32006
1646,U01655,Ashok Vihar Xing,28.7021,77.16435
1647,DC0049,Power House Rohini Sec 24,28.726983,77.080267
1648,U03037,Bhogal (Jungpura),28.58465,77.249617
1649,U01607,Modern School Vasant Vihar F Block,28.55995,77.157267
1650,U01752,Satya Niketan Dhaula Kuan,28.588,77.170583
1651,DC4481,Keshav Kunj / Pochan Pur Crossing,28.557084,77.053209
1652,U02516,Kamla Nehru College/Niti Bag,28.55785,77.217533
1653,U02433,Khalsa College,28.694883,77.209683
1654,DC0118,Onida Factory,28.513267,77.297717
1655,DC4435,Dichau Village,28.639764,76.984106
1656,DC3858,Deep Vihar,28.738,77.0829
1657,DC4690,Tatesar Gurukul,28.758517,76.967733
1658,U02389,Press Enclave,28.5279,77.2079
1659,U01433,Shakur Pur,28.685083,77.144817
1660,U02900,Zoo,28.608422,77.240216
1661,U00989,Hari Nagar Depot,28.624983,77.1022
1662,U99795A,Kanjhawala Chowk (Sarvodya Kanya Vidhyalaya),28.7376,77.008
1663,U00671,Prehladpur School,28.752783,77.075317
1664,DC4046,Hi-Land Apartments,28.599683,77.322017
1665,U01867,Azadpur,28.7063,77.1795
1666,DC4521,Bajit Pur Xing,28.784999,77.023967
1667,DC4023,Ghumanhera Crossing,28.535283,76.909333
1668,U02124,Alpana Cinema (Model Town Mtr Stn),28.70265,77.19365
1669,U00768,Inder Enclave,28.680933,77.084217
1670,U03174,Kalkaji Mandir (MaaAnandmayeeMarg),28.5479,77.263
1671,U02306,Balmiki Mandir Marg,28.639967,77.204483
1672,U03087,Nehru Place,28.547317,77.254033
1673,U01329,Pittampura RU-Block,28.7077333333333,77.1345666666667
1674,DC4544,Sec 5/8 Narela,28.857128,77.097951
1676,U00836,Palam Colony Flyover,28.513817,77.091417
1678,U03121,Ashram (Hari Nagar),28.574146,77.256836
1679,U03167,Dharam Pura,28.670717,77.261917
1681,DC4066,Virender Nagar / Dilli Haat,28.6232,77.09615
1682,U02240,Meghdoot Bhawan,28.643667,77.201033
1683,U02099,Nanak Piyau / DTC Colony,28.691167,77.192667
1684,U01723,Inderlok Metro Station,28.6715,77.167733
1685,DC4458,Pandwala Khurd,28.562281,76.967398
1686,U03537,Neethi Apartment,28.6312,77.3017
1687,U03193,Seelampur Metro Station,28.67075,77.26545
1688,U01374,B Block New Moti Nagar,28.6635,77.1406
1689,DC3878,Kotla Vihar Phase II,28.648236,77.025586
1690,U99969,Liberty Cinema,28.6599,77.1891
1691,U02602,Lodhi Garden / Mousam Bhawan,28.590167,77.220617
1692,DC3778,Indra Kalyan Vihar,28.523283,77.2756
1693,U03408,Mother Dairy Crossing,28.618933,77.287867
1694,U03475,Govt Model School / Ambedkar Park,28.621733,77.294533
1695,U99949,Rani Bagh,28.68405,77.126083
1696,U03032,Rajeev Nagar,28.7062,77.2506
1697,U02716,ISBT Kashmere Gate (Lothian Road),28.66685,77.229517
1698,U03685,SFS Quarter Gazipur,28.630817,77.316617
1699,U03358,Ansari Health Care,28.5614,77.2836
1700,U03350,Shahdara (Shyam Lal College),28.6736,77.283533
1701,U02087,DDA Flats Lado Sarai,28.529983,77.192133
1702,U99809,Mubarakpur Xing,28.712817,77.027833
1703,U01475,Inder Puri JJ Colony,28.632,77.1491
1704,U02995,Nehru Place Apartments,28.5439,77.2461
1705,DC0115,Madanpur Khadar Crossing,28.529333,77.288417
1706,DC4338,Qutub Vihar Phase-I Kikar Stand,28.578247,77.02915
1707,U02274,Roshnara Road,28.6692,77.2045
1708,DC4730,Gandhi Vihar Crossing (Duty ChangeOver),28.720951,77.218478
1709,U01418,Karampura Terminal,28.660241,77.144044
1710,U01832,Mohan Singh Market,28.5668,77.1762
1711,U03060,C R Park Market II,28.537467,77.252683
1712,U00907,Desu Colony Janak Puri,28.610011,77.095348
1713,U01441,Pitampura ND Block,28.6959166666667,77.14585
1714,NS0253,COD Ring Road,28.612917,77.13735
1715,DC4292,Shakur Pur JJ Colony/ Britannia,28.684178,77.145419
1716,U01888,Moti Bagh 1,28.5804,77.1802
1717,DC4189,Lajpat Nagar (Ring Road),28.564933,77.242883
1718,U01382,Samrat Enclave,28.6853,77.141017
1719,U99942A,Gairison Eng.,28.6054,77.147567
1720,DC0032,Rohini Sec 22/24 Crossing,28.7203,77.069
1721,DC3977,Zafrabad,28.676117,77.271317
1722,U01105,Rohini Sec 17/16,28.738383,77.117217
1723,U00220,Udaseen Ashram,28.621661,76.98823
1724,U01630,Indian AirLines/Priya Cinema,28.5587,77.158117
1725,DC4212,Shalimar Bagh AE Block,28.708248,77.166422
1726,U01864,Shankar Road,28.6391,77.179017
1727,U01455,Kathuria Public School (Sai Darbar Mandir),28.530983,77.1466
1728,U03551,Badarpur Border,28.493222,77.303353
1729,U03677,Gagan Cinema Wazirabad Road,28.697617,77.316867
1730,U02885,Delhi Gate,28.640767,77.238667
1731,U01010,Tihar Jail,28.6192,77.104417
1732,DC0100,Lodhi Colony,28.5847,77.2247
1733,U00112,Indra Service Station,28.608536,76.958755
1734,U02884,Jama Masjid,28.6508166666667,77.2384666666667
1735,U02706,Vivekanand Marg,28.640867,77.225733
1736,DC4504,Navin Palace,28.627806,76.967351
1737,U00497,Kirari Nahar,28.698817,77.053567
1738,U03395,Nirman Vihar Metro Station,28.63715,77.287067
1739,DC3675,Mangolpuri K Block (Sanjay Gandhi Hospital),28.694702,77.082072
1740,DC4753,Kangan Heri - II,28.545251,76.987725
1741,U03711,Dallu Pura,28.60875,77.32005
1742,DC4269,East Guru Angad Nagar,28.64115,77.282733
1743,U00386,Bawana Depot,28.803667,77.028517
1744,DC4518,Sultan Pur Xing,28.75634,77.015384
1745,DC3881,Bamnoli More,28.542449,77.029991
1746,U00013,Issapur Xing,28.57,76.8755
1747,DC4418,Ghuman Hera Village,28.532242,76.92242
1748,DC3732,Sonia Vihar,28.7324,77.246233
1749,U01376,F Block Kirti Nagar,28.651466,77.140817
1750,DC3963,Shri Golok Dham Bijwasan School,28.53355,77.059683
1751,DC3566,Nangli Dairy,28.620133,77.01795
1752,U03065,Paras Cinema,28.5479,77.2547
1753,U02974,Police Station Nizamuddin (Dargah),28.591667,77.244633
1754,DC0084,Rampuri Gali No-13,28.5351,77.2592
1757,U02628A,Old Secretariat (Postal Account Office),28.6838833333333,77.2222833333333
1758,U01992,Shastri Nagar A Block,28.672401,77.186038
1759,U01281,Agarsen Hospital,28.6745333333333,77.1348166666667
1760,U02967,Delhi Gate / Ambedkar Stadium Terminal,28.639867,77.2437
1761,U02840,Khanpur Village,28.5137,77.2349
1762,U00395,Kakrola Xing,28.6191,77.0314
1763,U99911,Jahangirpuri GT Road,28.7257,77.1628
1764,U01718,Ashok Vihar I Block,28.6853,77.1685
1765,DC4040,Multi Gym,28.601383,77.325067
1766,DC4441,Daulat Pur Village,28.546873,76.963232
1767,U02932,Delhi Gate,28.637267,77.240917
1768,DC3904,PS Bawana,28.8066166666667,77.0231166666667
1769,U02887,Tilak Bridge,28.6253,77.2387
1770,U02200,Balti Factory,28.7467,77.1983
1772,U01039,Rohini Depot III,28.695633,77.109033
1773,U02560,Marina,28.6367,77.2183
1774,U99880,Shri Ram Institute,28.681252,77.212361
1775,U01076,Tagore Garden Metro Station / Tatarpur,28.6441,77.1136
1776,U02217,Geetanjali Enclave,28.5308,77.1997
1777,U02502PR,Prithvi Raj Road,28.596483,77.21755
1778,DC3692,A-3 Janak Puri,28.619583,77.079267
1779,DC3715,PSRI,28.5314,77.224183
1780,U01083,Swarg Ashram,28.6308,77.1149
1781,U99775A,Shalimar Bagh Xing,28.7088,77.1746
1782,U03944,Rajouri Garden,28.647738,77.119541
1783,U02297,Saket Metro Sation,28.520467,77.20265
1784,U02471,SJ Airport,28.584467,77.212267
1785,DC4378,TilangPur Kotla,28.649517,77.027167
1786,DC3841,Blood Bank,28.586733,77.11845
1787,U00488,Kiran Garden,28.620619,77.0049268
1788,DC3629,Matiyala Xing,28.605083,77.052383
1789,U01164,Supply Depot,28.606783,77.123367
1790,U03284,Yamuna Vihar Brij Puri,28.702667,77.275333
1791,U01844,RK Puram Sec-12,28.5752,77.1778
1792,U00288,Dichau Kalan Depot,28.629367,76.9977
1793,DC4707,Kanjhawala Depot,28.727454,77.005227
1794,U00481,Rajdhani Park,28.6823,77.0487
1795,U02798,Pushpa Bhawan,28.52815,77.231567
1796,U02073,Prahlad Market,28.6538,77.1907
1797,U99729,Shaheed Park (Bhagat Singh Terminal),28.6351,77.241217
1798,DC3661,Old Seema Puri,28.680817,77.327867
1800,DC3638,NHW 8,28.5695,77.1326
1801,DC0137,Bank,28.5261,77.2736
1802,U02034,Karol Bagh Metro Station,28.6442,77.189
1803,U01338,Vaishali  Enclave / Kapil Vihar,28.6997,77.1371
1804,U03441,MIG Flates Loni Road,28.7004,77.295683
1805,U01285,Palam More,28.5682,77.1298
1806,U01764,Jahangirpuri E-Block,28.7324,77.1713
1807,U03099,Khajuri,28.704617,77.254433
1809,U01399,Karampura Terminal,28.661,77.142383
1810,U03086,Jagjit Nagar,28.686317,77.254567
1811,U01851,Azadpur Terminal,28.7072,77.1783
1812,U02779,Zakir Husain College,28.64115,77.229617
1813,U03300,Welcome Metro Station,28.672783,77.27715
1814,U01047,Hari Nagar Ghanta Ghar,28.624804,77.110518
1815,U02953,DPS / Police Station Nizamuddin(Lodhi Road),28.592933,77.242217
1816,DC4693,Jonti Crossing,28.745983,76.97845
1817,DC3807,Satyawati College,28.69505,77.17952
1818,U02619,Mori Gate Terminal,28.665861,77.222085
1819,DC3761,Yojana Vihar/ Yamuna Sports Complex,28.663317,77.314617
1820,DC3949,Bhagwan Mahavir Hospital,28.687433,77.117117
1821,DC4616,Rohini Depot-II,28.729867,77.121483
1822,U02157,East Park Road,28.6508,77.1973
1823,U02139,PTS,28.531317,77.197033
1824,U03542,Ashirwad Apartment,28.6347,77.3022
1825,U00772,Inder Enclave,28.680517,77.084083
1826,U02473,AIIMS Ring Road,28.56915,77.212433
1827,U03073,Nizamuddin Road Bridge,28.603867,77.253667
1828,U00463,Nawada Gaon,28.620007,77.044129
1829,DC4447,Kangan Heri - I,28.548397,76.98869
1830,U03798,Bharti Public School,28.60535,77.333117
1831,U00575,Barwala School,28.759167,77.06275
1832,U02422,Sunheri Masjid/G Block,28.6096,77.2097
1833,DC4424,Pandwala Crossing,28.574027,76.952356
1834,DC4547,Sec 10A Pkt-6,28.849048,77.098446
1835,U01117,Madipur JJ Colony Metro Station,28.676398,77.118204
1836,U00352,Shivam Plywood,28.7352,77.0125833333333
1837,U01425,Moti Nagar,28.658867,77.144183
1838,U02826,Art Gallery,28.61035,77.233517
1839,U99630,Kirari Lal Mandir,28.697668,77.055991
1840,DC0038,Sec-24 Rohini Main Road,28.7271,77.0986
1841,U03462,Maruti,28.5217,77.2937
1842,U00731,Health Centre,28.592067,77.0813
1843,DC4324,Shyam Vihar,28.591403,77.000404
1844,U99894A,Tagore Garden,28.6477,77.1158
1845,U01438,Gurudwara,28.764967,77.145317
1846,U01677,Vasant Kunj Sec-A ILBS,28.5117,77.166767
1847,DC3538,Kiran Garden,28.620317,77.0468
1848,DC3929,Radisson BLU Hotel,28.596067,77.037467
1849,U03045,Bhogal,28.583533,77.250833
1850,DC4318,Chand Nagar,28.645221,77.099156
1851,DC3830,Aditi College,28.794167,77.036633
1852,DC4218,Shalimar Bagh BJ Block,28.712613,77.158747
1853,U00426,Karala Village,28.731583,77.036983
1854,DC4533,Kaushal Devi Netraheen Ashram,28.825479,77.069821
1855,U03515,Mansarovar Park Metro Station,28.675479,77.300119
1856,DC4510,Lado Sarai Crossing,28.5272,77.189767
1857,U00636,SFS Flat Sec-2 Power House,28.600333,77.071483
1858,U03189,Maharani Bagh / Ashram,28.576295,77.264457
1859,U99749A,B-3 Andh Vidyalaya,28.656483,77.108767
1860,U03570,Ras Vihar,28.6253,77.3051
1861,U03651,TELCO Gazipur,28.6409,77.3154
1862,U01175,Metal Forging,28.629,77.122817
1863,DC4132,Kasturba Gandhi Road Crossing,28.62198,77.223683
1864,U00653,Jivan park,28.6195,77.0736
1865,U01064,Rajeev Gandhi Cancer Hospital,28.71725,77.111833
1866,DC4195,Princess Park/ Airforce Noval Office Enclave,28.587302,77.066549
1867,U00913,B Block Mangolpuri,28.6891833333333,77.0954833333333
1868,U01860,Railway Colony (Sardar Patel Marg),28.600783,77.1785
1869,DC0001,Rithala School,28.7150666666667,77.1038666666667
1870,DC4301,Chander Lok,28.688635,77.135279
1871,U99816,Upper Ridge Road,28.63215,77.190017
1872,U02143,Shakti Nagar Nangia Park,28.679846,77.195746
1874,DC4779,Shikar Pur Village,28.529966,76.95514
1875,DC0107,Karkardooma Crossing,28.642917,77.2972
1876,U02539,Palika Kendra,28.62875,77.216467
1877,U01222,SPM College,28.6751,77.1281
1878,DC4387,Chanchal Park,28.6463,77.021333
1879,U01139X,Rohini Sec-16 Xing,28.7439,77.1208
1880,DC4341,St Marry School,28.5966333333333,77.14535
1881,U00472,Ranhola Village,28.655779,77.040633
1882,U02483,Vikas Sadan,28.5766,77.2134
1883,U02379,Safdurjung Hospital / AIIMS,28.56725,77.207733
1884,U00598,Uttam Nagar Terminal,28.625517,77.066133
1885,U99621,Samalkha More,28.537967,77.093683
1886,U01739,Vasant Kunj Sec-A Pkt-BC,28.5104,77.169617
1887,U99930ASTL,Indian Oil Station,28.577283,77.108833
1888,DC3698,CRPF Camp Keshopur,28.646361,77.084243
1890,DC3721,Naraina Vihar / Indra Market,28.626533,77.134783
1891,U02863,Lady Shri Ram College,28.5588,77.2371
1892,U02361,Bhai Parmanand Colony,28.7103,77.2086
1894,U01944,New Rajender Nagar,28.6366,77.183683
1895,DC3784,Qutub Minar Metro Sation,28.511733,77.1844
1896,U01086,Kali Mata Mandir,28.6969,77.1154
1897,U03724,Surya Nagar,28.666933,77.321467
1898,DC3678,Safdurjang Enclave,28.566078,77.190996
1899,U02411,Ice Factory,28.666851,77.209097
1900,U99980,Nehru Vihar,28.7116,77.2226
1901,DC4470,Mundhela School II,28.614073,76.895727
1902,U01174,Sai Baba Chowk,28.708817,77.124017
1903,DC4364,Keshav Nagar Mukti Ashram,28.779253,77.179936
1904,U00957,Shahbad Dairy A Block,28.7459,77.0985
1906,DC4756,Badu sarai Village,28.529628,76.98658
1907,U01257,Mayapuri Chowk (Ring Road),28.638567,77.129883
1908,U03257,Bharat Nagar Crossing,28.5619,77.2723
1909,U99852A,Unani Hospital / Okhla Ext Thokar 3,28.558951,77.296058
1910,U01061,Shahbad Gaon,28.745283,77.111267
1912,U02293Z,Kendriya Terminal,28.6173,77.204
1913,DC4012,Malikpur Crossing,28.552433,76.907767
1914,DC0021,Geeta Colony Road Crossing,28.6512,77.2525
1915,DC3989,Shiv Mandir,28.6898,77.283783
1916,DC3966,Kapashera More,28.530683,77.086417
1917,DC4507,Surehra Village,28.5985889521003,76.9363090139898
1918,DC3870,BrahmPuri Colony,28.652115,77.032597
1919,DC4530,Jain Shukla Mandir,28.81186,77.053907
1920,U03161,Tughlaqabad Extension,28.5256,77.261
1921,DC0104,Surya Niketan,28.655617,77.310417
1922,U02025,Dev Nagar / Khalsa College,28.6553,77.1883
1923,U02893,Subhash Park,28.649317,77.23935
1924,U03634,Bank Colony,28.698,77.3115
1925,U00820,C2B Janakpuri,28.621222,77.088818
1926,DC3555,Jharoda Crossing / Nazafgarh Terminal,28.613678,76.980212
1927,U01879,RK Puram Sec-1,28.5643,77.1798
1928,U00993,St Xavier School,28.7455,77.1027
1929,U02973,ITO,28.627983,77.244433
1930,U00696,Dwarka Puri,28.607483,77.078267
1931,U03080,Kartar Nagar,28.68945,77.254167
1932,U02597,Firoz Shah Road,28.6208,77.2206
1933,U01779,JA Block Ashok Vihar,28.686767,77.172517
1934,U03095,Tara Apartments Terminal,28.523883,77.2552
1935,U01524,Pandav Nagar,28.650133,77.15335
1936,U03290,Okhla Tank,28.548383,77.276583
1937,DC3601,Mukarba Chowk,28.73475,77.155867
1938,DC4281,Dwarka Sec 19-20 Crossing,28.576405,77.057223
1939,U02860,Ishpat Bhawan,28.5924,77.23675
1940,U00527SMPX,Bharthal Under Pass,28.5476333333333,77.05735
1941,DC4381,BakkarWala Crossing,28.64335,77.016067
1942,DC3744,Gatta Factory Sonia Vihar,28.72945,77.24565
1943,DC4304,Lok Vihar,28.692995,77.134923
1944,DC3767,Christian Kabristan,28.730367,77.190083
1945,DC4610,Ber Sarai,28.550617,77.181617
1946,DC3867,Vishal Enclave,28.653258,77.118469
1948,U00730,District Centre Outer Ring Road,28.6334,77.0811
1949,U00167,Prem Nursery,28.610333,76.9713
1950,U02927,Lodhi Hotel,28.5919,77.2402
1951,DC3532,Bhagini Nivedita College,28.617904,76.931464
1952,DC3781,CRPF Camp Okhla Phase 1,28.528783,77.270333
1953,U02667,Lodhi Colony Market,28.584567,77.223367
1954,U02413,Panchsheel Club,28.546,77.2093
1955,U03743,Kondali Old,28.612978,77.322856
1956,U02722,Ambedkar Nagar Terminal,28.515588,77.22728
1957,DC4069,Sir Ganga Ram Hospital,28.63894,77.18816
1958,U01295RS,Sai Apartments,28.720983,77.134467
1959,U02324,Rani Jhansi Road Jhande Walan,28.6456,77.205
1960,U99613,Shivam Plywood,28.735453,77.012023
1961,U01026,DA Block Hari Nagar,28.6251,77.106867
1962,U02828,Patiala House,28.6166,77.2338
1964,U03457,Radheypuri,28.654,77.2925
1965,U99798A,Radha Swami Satsang,28.7339833333333,77.02075
1966,U01787,R-Block Rajendra Nagar,28.6328,77.173
1967,U00632,Mahaveer Enclave Part II  and  III,28.603617,77.07105
1968,U00684,Prehladpur School,28.75305,77.07475
1969,U00459,Dwarka Sec 3-4,28.602633,77.043217
1970,U02065,Prahlad Market,28.6539,77.1909
1971,DC4696,Rajendra Lakra Public School,28.740383,76.994583
1973,U99823,Mayapuri Depot,28.63685,77.12835
1974,U01840,Jahangir Puri Outer Ring Road,28.7346,77.176533
1975,U02128,Nauroji Nagar,28.569633,77.195533
1976,DC4155,M Block Sarojini Nagar,28.578472,77.189692
1977,U99922,St Stephen Hospital,28.6671,77.2149
1978,U01574,Prem Bari Pull,28.700267,77.158283
1979,U02019,R K Puram Sec-2,28.561567,77.188233
1980,U02948,Shastri Park Metro Depot,28.673433,77.241183
1981,U01581,Shadipur Metro Station,28.6515,77.1587
1982,U03379,Ganesh Nagar,28.621017,77.285233
1983,U00776,Janakpuri East Metro Station/ Nangli Zalib,28.633,77.0857
1984,DC3844,CPRTI/ Delhi Jal Board,28.63715,77.1924
1985,DC4633,Issapur Village Temple,28.577151,76.863766
1986,U01781,New Sabzi Mandi,28.7146,77.1724
1987,U03589,GTB Hospital Xing,28.6898,77.3066
1988,U03674,Super Bazar,28.613567,77.316317
1989,U02198,Guru Govind Singh Marg,28.655517,77.198983
1990,DC4679,Punjab Khor Village,28.773006,76.962094
1991,U01617,NASC Dasghara,28.6255,77.1621
1992,DC3704,Krishi Bhawan,28.617467,77.213083
1993,U02805,ISBT Maharana Pratap Bus Terminal,28.66872818,77.23190647
1994,U02519,Hauj Rani,28.5297,77.2158
1995,DC4241,Surya Nagar,28.667917,77.321283
1996,U02650,Ajmeri Gate / Kamla Market,28.644519,77.223625
1997,DC4782,Sarvodya School Daulat Pur,28.543821,76.963654
1998,DC3578,Shastri Park Pusta Road,28.674017,77.256133
1999,U01448,Pitampura ND Block,28.6954,77.1461
2000,DC4570,Prem Piyau,28.765949,77.016532
2001,DC3907,C Block Mangol Puri,28.692483,77.09145
2002,DC4593,PWD Office / Aruna Nagar Ring Road,28.70253,77.22733
2003,U03466,Prehlad Pur,28.5,77.294633
2004,U02708,Akbar Road,28.610633,77.22595
2005,U03201,Bala Sahib Gurudwara,28.5812,77.266
2006,U03023,IP Depot Metro Station,28.6202,77.2485
2007,DC4029,Mitraon Village (Kair Village Road),28.608446,76.944717
2008,DC3641,Palam Airport Bypass,28.569417,77.123317
2009,U02581,Eastern Court,28.6239,77.219
2010,U03793,Dilshad Garden Depot Cluster,28.685545,77.331211
2011,U00849,Meera Bagh,28.659,77.091483
2012,DC4656,Titiksha Public School,28.725117,77.25895
2013,U03155,Rampuri Gali No 13,28.53475,77.2601
2014,U02734,Siri Fort Road,28.55355,77.228117
2015,U00974,Sagarpur Vashisht Park,28.6092,77.1011
2016,DC0087,Raghubir Nagar F Block,28.65235,77.106567
2017,U99919,Humayun Road,28.603333,77.2272
2018,DC4115,St. Lawrence School,28.65235,77.269317
2019,DC4367,Aman Puri,28.673083,77.05975
2020,U03211,DDA Kalkaji Extension,28.527,77.267
2021,DC4344,Amrohi More,28.574383,77.05115
2022,U00462,Agar Nagar,28.7032,77.04415
2023,DC4152,Radisson Hotel / Mahipal Pur Crossing,28.545933,77.1232
2024,U03519,Badarpur M B Road,28.49935,77.29915
2025,DC4321,Khayala Colony Terminal,28.652202,77.095739
2026,DC4298,Mahindra Park Road No-44,28.684076,77.136129
2027,U02147,Talkatora Stadium,28.626217,77.196417
2028,U00440,MRV School Sec 13 Dwarka,28.604,77.039
2029,U00587,Begumpur,28.7216833333333,77.065
2030,U03172,Acharya Narendra Dev College Govindpuri,28.538467,77.263233
2031,U02720,Shahjahan Road UPSC,28.6074,77.226933
2032,U02032,Gulabi Bagh,28.675,77.1883
2034,U01230,Mayapuri Depot,28.636933,77.1289
2035,U02656,Police Station Timarpur,28.707017,77.223917
2036,U03504,Onida Factory,28.513183,77.297783
2037,U00612,Police Station Vikaspuri,28.63145,77.068767
2038,U00557,Barwala Village,28.7604,77.060533
2039,U02149,Dr. RML Hospital,28.6224666666667,77.19665
2040,U03223,Seelam Pur Metro Mall,28.670962,77.268275
2041,U00443,Karala School,28.7308166666667,77.0396666666667
2042,DC4444,Shikar Pur Crossing,28.545445,76.965281
2043,U03999A,Holy Family Hospital,28.5604,77.273
2044,U02208,Shakti Nagar,28.6804,77.1993
2045,U01899,ISTM,28.552283,77.181167
2046,U03697,National Highway 24 Crossing,28.6272,77.318217
2047,U02444,Red Cross Road,28.618035,77.210453
2048,U03307,Laxmi Nagar,28.6313,77.2789
2049,DC4052,Krishna Marg Kardam Puri,28.696783,77.28195
2050,DC4198,NHAI Building/ Dwarka Sec-10 Metro Station,28.579068,77.059118
2051,DC4590,Raksha Vigyan Kendra / Metcalf House,28.68341,77.22923
2052,U03421,Madanpur Khadar Crossing,28.52965,77.287933
2053,DC4490,S.Sr. Kanya Vidhyalaya,28.646696,76.955883
2054,DC4636,Issapur School,28.576229,76.867131
2055,U01181,Chhawani Hospital,28.59857,77.12434
2056,U02645,Statesman House,28.6306,77.2238
2057,U02093,Lado Sarai (Crossing),28.522833,77.19185
2058,U03812A,Mayur Vihar Ph-III,28.614033,77.33735
2059,U99829,Samalka Village,28.534183,77.090267
2060,U99743Z,Sheikh Sarai Ph-II,28.5336,77.232
2061,DC3910,BE Block Hari Nagar/ESI Dispensary,28.6274,77.121683
2062,U02532,Gandhi Vihar,28.7221,77.2161333333333
2063,U00920,Shahbad Dairy,28.7465,77.096
2065,U02633,Gopal Pur Crossing / Jagatpur Crossing,28.7196,77.2228
2066,DC3887,Pochan Pur Village,28.5589,77.043833
2067,U02397,Azad Market,28.6643,77.2081
2068,DC3595,ISBT Bridge,28.669383,77.229183
2069,U00303,Sir Chhotu Ram Polytechnic,28.70675,77.001217
2070,U00876,Janak Cinema,28.610936,77.093097
2071,U01081,Rohini Depot 1 Sec 6 (Ambedkar Hospital),28.7158,77.113983
2072,DC4467,Mundhela Kalan Village,28.609734,76.893466
2073,U02350,GTB Nagar,28.6982666666667,77.20665
2074,DC4075,Nathu Colony,28.689611,77.30123
2075,DC3681,Gazi Pur Dairy Farm,28.620867,77.32055
2076,DC4759,Nanak Heri Village,28.52099,76.986079
2077,U01343,Badli Railway Staion,28.7453,77.137333
2078,DC3635,Palam Airport Bypass,28.56955,77.123533
2079,U01252,Madhuban Chowk,28.7028,77.1302
